%  GPST          latitude(deg) longitude(deg)  height(m)   Q  ns   sdn(m)   sde(m)   sdu(m)  sdne(m)  sdeu(m)  sdun(m) age(s)  ratio
2345 479342.000   44.399820444    8.937704556   108.9843   6  12   6.0676   4.0465   8.5452   1.2933  -1.4965  -1.8080   0.00    0.0
2345 479343.000   44.399821082    8.937705544   109.0857   6  12   4.3170   2.8806   6.1013   0.9314  -1.1009  -1.3167   0.00    0.0
2345 479344.000   44.399821365    8.937705814   108.9952   6  12   3.5322   2.3574   5.0009   0.7652  -0.9124  -1.0851   0.00    0.0
2345 479345.000   44.399820783    8.937705809   108.8486   6  12   3.0622   2.0439   4.3412   0.6647  -0.7970  -0.9437   0.00    0.0
2345 479346.000   44.399820668    8.937705712   108.8824   6  12   2.7407   1.8294   3.8897   0.5957  -0.7174  -0.8459   0.00    0.0
2345 479347.000   44.399820868    8.937705475   108.9730   6  12   2.5030   1.6708   3.5560   0.5444  -0.6581  -0.7731   0.00    0.0
2345 479348.000   44.399821200    8.937705308   108.9913   6  12   2.3181   1.5474   3.2965   0.5045  -0.6119  -0.7161   0.00    0.0
2345 479349.000   44.399821479    8.937704978   109.0441   6  12   2.1689   1.4478   3.0873   0.4722  -0.5746  -0.6700   0.00    0.0
2345 479350.000   44.399821695    8.937704746   109.1097   6  12   2.0453   1.3653   2.9139   0.4454  -0.5437  -0.6317   0.00    0.0
2345 479351.000   44.399822347    8.937704569   109.1582   6  12   1.9407   1.2954   2.7673   0.4227  -0.5175  -0.5992   0.00    0.0
2345 479352.000   44.399823011    8.937704460   109.2136   6  12   1.8506   1.2353   2.6412   0.4032  -0.4950  -0.5711   0.00    0.0
2345 479353.000   44.399823585    8.937704203   109.2608   6  12   1.7720   1.1829   2.5313   0.3861  -0.4754  -0.5465   0.00    0.0
2345 479354.000   44.399824199    8.937704109   109.3451   6  12   1.7027   1.1366   2.4343   0.3710  -0.4580  -0.5248   0.00    0.0
2345 479355.000   44.399824786    8.937704065   109.4069   6  12   1.6409   1.0953   2.3480   0.3576  -0.4427  -0.5055   0.00    0.0
2345 479356.000   44.399825465    8.937703825   109.4757   6  12   1.5854   1.0582   2.2705   0.3455  -0.4288  -0.4880   0.00    0.0
2345 479357.000   44.399826198    8.937703627   109.5437   6  12   1.5352   1.0247   2.2004   0.3346  -0.4164  -0.4722   0.00    0.0
2345 479358.000   44.399826990    8.937703370   109.6118   6  12   1.4894   0.9942   2.1367   0.3246  -0.4050  -0.4578   0.00    0.0
2345 479359.000   44.399827483    8.937703256   109.6443   6  12   1.4476   0.9662   2.0784   0.3155  -0.3946  -0.4446   0.00    0.0
2345 479360.000   44.399827944    8.937703192   109.6741   6  12   1.4090   0.9405   2.0247   0.3071  -0.3851  -0.4324   0.00    0.0
2345 479361.000   44.399828420    8.937703189   109.7101   6  12   1.3734   0.9167   1.9752   0.2994  -0.3763  -0.4212   0.00    0.0
2345 479362.000   44.399828887    8.937703163   109.7223   6  12   1.3404   0.8947   1.9293   0.2922  -0.3682  -0.4107   0.00    0.0
2345 479363.000   44.399829305    8.937703123   109.7191   6  12   1.3097   0.8741   1.8866   0.2855  -0.3606  -0.4009   0.00    0.0
2345 479364.000   44.399829589    8.937703083   109.6764   6  12   1.2809   0.8549   1.8467   0.2792  -0.3536  -0.3918   0.00    0.0
2345 479365.000   44.399829818    8.937703045   109.6379   6  12   1.2540   0.8370   1.8094   0.2733  -0.3470  -0.3833   0.00    0.0
2345 479366.000   44.399830092    8.937703015   109.6043   6  12   1.2287   0.8201   1.7744   0.2678  -0.3408  -0.3752   0.00    0.0
2345 479367.000   44.399830381    8.937703311   109.5592   6  12   1.2049   0.8042   1.7414   0.2626  -0.3350  -0.3676   0.00    0.0
2345 479368.000   44.399830778    8.937703584   109.5193   6  12   1.1825   0.7892   1.7103   0.2577  -0.3295  -0.3604   0.00    0.0
2345 479369.000   44.399831235    8.937703829   109.4785   6  12   1.1612   0.7750   1.6809   0.2531  -0.3244  -0.3536   0.00    0.0
2345 479370.000   44.399831644    8.937704122   109.4457   6  12   1.1410   0.7615   1.6531   0.2487  -0.3195  -0.3472   0.00    0.0
2345 479371.000   44.399831960    8.937704419   109.4188   6  12   1.1219   0.7487   1.6267   0.2445  -0.3149  -0.3411   0.00    0.0
2345 479372.000   44.399832204    8.937704714   109.4083   6  12   1.1037   0.7366   1.6015   0.2405  -0.3105  -0.3352   0.00    0.0
2345 479373.000   44.399832516    8.937704969   109.3950   6  12   1.0864   0.7250   1.5776   0.2367  -0.3063  -0.3296   0.00    0.0
2345 479374.000   44.399832786    8.937705179   109.3731   6  12   1.0698   0.7139   1.5548   0.2331  -0.3023  -0.3243   0.00    0.0
2345 479375.000   44.399832900    8.937705344   109.3412   6  12   1.0540   0.7034   1.5331   0.2297  -0.2985  -0.3192   0.00    0.0
2345 479376.000   44.399833042    8.937705480   109.3234   6  12   1.0389   0.6933   1.5123   0.2264  -0.2949  -0.3143   0.00    0.0
2345 479377.000   44.399833204    8.937705560   109.3025   6  12   1.0244   0.6836   1.4924   0.2232  -0.2914  -0.3097   0.00    0.0
2345 479378.000   44.399833332    8.937705627   109.2777   6  12   1.0105   0.6743   1.4733   0.2201  -0.2881  -0.3052   0.00    0.0
2345 479379.000   44.399833462    8.937705662   109.2619   6  12   0.9971   0.6654   1.4549   0.2172  -0.2849  -0.3008   0.00    0.0
2345 479380.000   44.399833604    8.937705613   109.2527   6  12   0.9843   0.6568   1.4373   0.2144  -0.2818  -0.2967   0.00    0.0
2345 479381.000   44.399833836    8.937705561   109.2436   6  12   0.9719   0.6485   1.4204   0.2117  -0.2789  -0.2927   0.00    0.0
2345 479382.000   44.399834077    8.937705469   109.2440   6  12   0.9600   0.6406   1.4041   0.2091  -0.2761  -0.2888   0.00    0.0
2345 479383.000   44.399834379    8.937705297   109.2461   6  12   0.9486   0.6329   1.3884   0.2066  -0.2734  -0.2851   0.00    0.0
2345 479384.000   44.399834727    8.937705153   109.2556   6  12   0.9375   0.6255   1.3733   0.2042  -0.2708  -0.2815   0.00    0.0
2345 479385.000   44.399835080    8.937705032   109.2713   6  12   0.9268   0.6184   1.3587   0.2019  -0.2682  -0.2780   0.00    0.0
2345 479386.000   44.399835524    8.937704926   109.2996   6  12   0.9165   0.6115   1.3446   0.1996  -0.2658  -0.2746   0.00    0.0
2345 479387.000   44.399836062    8.937704795   109.3318   6  12   0.9065   0.6048   1.3310   0.1974  -0.2635  -0.2714   0.00    0.0
2345 479388.000   44.399836577    8.937704620   109.3641   6  12   0.8968   0.5984   1.3178   0.1953  -0.2612  -0.2682   0.00    0.0
2345 479389.000   44.399837278    8.937704453   109.4223   6  12   0.8875   0.5921   1.3051   0.1932  -0.2590  -0.2651   0.00    0.0
2345 479390.000   44.399837976    8.937704271   109.4746   6  12   0.8784   0.5860   1.2927   0.1912  -0.2569  -0.2622   0.00    0.0
2345 479391.000   44.399838638    8.937704118   109.5326   6  12   0.8696   0.5802   1.2807   0.1893  -0.2548  -0.2593   0.00    0.0
2345 479392.000   44.399839356    8.937703964   109.5945   6  12   0.8610   0.5745   1.2691   0.1874  -0.2528  -0.2565   0.00    0.0
2345 479393.000   44.399840007    8.937703821   109.6431   6  12   0.8527   0.5689   1.2578   0.1856  -0.2509  -0.2537   0.00    0.0
2345 479394.000   44.399840621    8.937703694   109.6865   6  12   0.8447   0.5635   1.2469   0.1839  -0.2491  -0.2511   0.00    0.0
2345 479395.000   44.399841187    8.937703553   109.7251   6  12   0.8368   0.5583   1.2363   0.1821  -0.2472  -0.2485   0.00    0.0
2345 479396.000   44.399841751    8.937703429   109.7643   6  12   0.8292   0.5532   1.2260   0.1805  -0.2455  -0.2460   0.00    0.0
2345 479397.000   44.399842253    8.937703330   109.8014   6  12   0.8218   0.5482   1.2159   0.1789  -0.2438  -0.2435   0.00    0.0
2345 479398.000   44.399842694    8.937703265   109.8376   6  12   0.8146   0.5434   1.2061   0.1773  -0.2421  -0.2411   0.00    0.0
2345 479399.000   44.399843075    8.937703236   109.8655   6  12   0.8076   0.5387   1.1966   0.1757  -0.2405  -0.2388   0.00    0.0
2345 479400.000   44.399843490    8.937703187   109.8913   6  12   0.8007   0.5341   1.1874   0.1742  -0.2389  -0.2365   0.00    0.0
2345 479401.000   44.399843859    8.937703167   109.9171   6  12   0.7940   0.5297   1.1784   0.1728  -0.2374  -0.2343   0.00    0.0
2345 479402.000   44.399844259    8.937703137   109.9454   6  12   0.7875   0.5253   1.1696   0.1713  -0.2359  -0.2321   0.00    0.0
2345 479403.000   44.399844585    8.937703154   109.9731   6  12   0.7812   0.5211   1.1610   0.1699  -0.2345  -0.2300   0.00    0.0
2345 479404.000   44.399844816    8.937703146   109.9784   6  12   0.7750   0.5169   1.1526   0.1686  -0.2330  -0.2279   0.00    0.0
2345 479405.000   44.399845000    8.937703131   109.9796   6  12   0.7689   0.5129   1.1445   0.1672  -0.2317  -0.2259   0.00    0.0
2345 479406.000   44.399845071    8.937703163   109.9738   6  12   0.7630   0.5089   1.1365   0.1659  -0.2303  -0.2239   0.00    0.0
2345 479407.000   44.399845200    8.937703212   109.9739   6  12   0.7572   0.5051   1.1287   0.1647  -0.2290  -0.2220   0.00    0.0
2345 479408.000   44.399845275    8.937703262   109.9697   6  12   0.7515   0.5013   1.1211   0.1634  -0.2277  -0.2201   0.00    0.0
2345 479409.000   44.399845309    8.937703323   109.9595   6  12   0.7460   0.4976   1.1137   0.1622  -0.2265  -0.2182   0.00    0.0
2345 479410.000   44.399845331    8.937703406   109.9482   6  12   0.7406   0.4940   1.1065   0.1610  -0.2253  -0.2164   0.00    0.0
2345 479411.000   44.399845299    8.937703503   109.9284   6  12   0.7353   0.4904   1.0994   0.1599  -0.2241  -0.2146   0.00    0.0
2345 479412.000   44.399845272    8.937703605   109.9065   6  12   0.7301   0.4870   1.0924   0.1587  -0.2229  -0.2129   0.00    0.0
2345 479413.000   44.399845232    8.937703703   109.8867   6  12   0.7251   0.4836   1.0856   0.1576  -0.2218  -0.2112   0.00    0.0
2345 479414.000   44.399845221    8.937703765   109.8673   6  12   0.7201   0.4803   1.0790   0.1565  -0.2207  -0.2095   0.00    0.0
2345 479415.000   44.399845100    8.937703852   109.8378   6  12   0.7152   0.4770   1.0725   0.1555  -0.2196  -0.2078   0.00    0.0
2345 479416.000   44.399844914    8.937703915   109.8027   6  12   0.7105   0.4738   1.0661   0.1544  -0.2185  -0.2062   0.00    0.0
2345 479417.000   44.399844750    8.937703951   109.7750   6  12   0.7058   0.4707   1.0599   0.1534  -0.2175  -0.2046   0.00    0.0
2345 479418.000   44.399844655    8.937703995   109.7540   6  12   0.7012   0.4677   1.0538   0.1524  -0.2164  -0.2031   0.00    0.0
2345 479419.000   44.399844584    8.937704057   109.7348   6  12   0.6967   0.4647   1.0478   0.1514  -0.2154  -0.2015   0.00    0.0
2345 479420.000   44.399844505    8.937704083   109.7164   6  12   0.6923   0.4617   1.0419   0.1504  -0.2145  -0.2000   0.00    0.0
2345 479421.000   44.399844432    8.937704096   109.6967   6  12   0.6880   0.4588   1.0361   0.1495  -0.2135  -0.1985   0.00    0.0
2345 479422.000   44.399844373    8.937704093   109.6797   6  12   0.6838   0.4560   1.0305   0.1485  -0.2126  -0.1971   0.00    0.0
2345 479423.000   44.399844320    8.937704074   109.6616   6  12   0.6796   0.4532   1.0250   0.1476  -0.2116  -0.1957   0.00    0.0
2345 479424.000   44.399844267    8.937704042   109.6427   6  12   0.6755   0.4505   1.0195   0.1467  -0.2107  -0.1943   0.00    0.0
2345 479425.000   44.399844220    8.937704009   109.6220   6  12   0.6715   0.4478   1.0142   0.1458  -0.2099  -0.1929   0.00    0.0
2345 479426.000   44.399844136    8.937703966   109.6016   6  12   0.6675   0.4451   1.0089   0.1450  -0.2090  -0.1915   0.00    0.0
2345 479427.000   44.399844089    8.937703928   109.5895   6  12   0.6637   0.4425   1.0038   0.1441  -0.2081  -0.1902   0.00    0.0
2345 479428.000   44.399843998    8.937703887   109.5692   6  12   0.6599   0.4400   0.9988   0.1433  -0.2073  -0.1889   0.00    0.0
2345 479429.000   44.399843892    8.937703843   109.5509   6  12   0.6561   0.4375   0.9938   0.1425  -0.2065  -0.1876   0.00    0.0
2345 479430.000   44.399843849    8.937703797   109.5367   6  12   0.6524   0.4350   0.9889   0.1416  -0.2057  -0.1863   0.00    0.0
2345 479431.000   44.399843809    8.937703771   109.5257   6  12   0.6488   0.4326   0.9841   0.1408  -0.2049  -0.1851   0.00    0.0
2345 479432.000   44.399843752    8.937703760   109.5157   6  12   0.6453   0.4302   0.9794   0.1401  -0.2041  -0.1838   0.00    0.0
2345 479433.000   44.399843689    8.937703746   109.5065   6  12   0.6418   0.4279   0.9748   0.1393  -0.2033  -0.1826   0.00    0.0
2345 479434.000   44.399843533    8.937703735   109.4889   6  12   0.6383   0.4256   0.9703   0.1385  -0.2026  -0.1814   0.00    0.0
2345 479435.000   44.399843335    8.937703751   109.4652   6  12   0.6349   0.4233   0.9658   0.1378  -0.2019  -0.1802   0.00    0.0
2345 479436.000   44.399843090    8.937703786   109.4416   6  12   0.6316   0.4211   0.9614   0.1371  -0.2011  -0.1791   0.00    0.0
2345 479437.000   44.399842799    8.937703822   109.4124   6  12   0.6283   0.4189   0.9571   0.1363  -0.2004  -0.1779   0.00    0.0
2345 479438.000   44.399842485    8.937703861   109.3794   6  12   0.6251   0.4167   0.9528   0.1356  -0.1997  -0.1768   0.00    0.0
2345 479439.000   44.399842118    8.937703891   109.3391   6  12   0.6219   0.4146   0.9486   0.1349  -0.1990  -0.1757   0.00    0.0
2345 479440.000   44.399841761    8.937703918   109.2962   6  12   0.6188   0.4125   0.9445   0.1342  -0.1984  -0.1746   0.00    0.0
2345 479441.000   44.399841364    8.937703943   109.2475   6  12   0.6157   0.4104   0.9404   0.1335  -0.1977  -0.1735   0.00    0.0
2345 479442.000   44.399840901    8.937703982   109.1963   6  12   0.6126   0.4084   0.9364   0.1329  -0.1970  -0.1724   0.00    0.0
2345 479443.000   44.399840351    8.937704046   109.1338   6  12   0.6096   0.4064   0.9325   0.1322  -0.1964  -0.1713   0.00    0.0
2345 479444.000   44.399839754    8.937704137   109.0674   6  12   0.6067   0.4044   0.9286   0.1316  -0.1958  -0.1703   0.00    0.0
2345 479445.000   44.399839068    8.937704236   108.9909   6  12   0.6038   0.4025   0.9248   0.1309  -0.1951  -0.1693   0.00    0.0
2345 479446.000   44.399838373    8.937704346   108.9054   6  12   0.6009   0.4006   0.9210   0.1303  -0.1945  -0.1682   0.00    0.0
2345 479447.000   44.399837687    8.937704459   108.8219   6  12   0.5981   0.3987   0.9173   0.1297  -0.1939  -0.1672   0.00    0.0
2345 479448.000   44.399836989    8.937704561   108.7341   6  12   0.5953   0.3968   0.9137   0.1290  -0.1933  -0.1662   0.00    0.0
2345 479449.000   44.399836276    8.937704657   108.6445   6  12   0.5925   0.3950   0.9101   0.1284  -0.1927  -0.1653   0.00    0.0
2345 479450.000   44.399835563    8.937704753   108.5530   6  12   0.5898   0.3932   0.9066   0.1278  -0.1922  -0.1643   0.00    0.0
2345 479451.000   44.399834850    8.937704830   108.4593   6  12   0.5872   0.3914   0.9031   0.1272  -0.1916  -0.1633   0.00    0.0
2345 479452.000   44.399834837    8.937704872   108.4458   6  11   0.5852   0.3896   0.9000   0.1265  -0.1911  -0.1600   0.00    0.0
2345 479453.000   44.399834822    8.937704897   108.4285   6  11   0.5833   0.3879   0.8970   0.1258  -0.1907  -0.1567   0.00    0.0
2345 479454.000   44.399834797    8.937704921   108.4143   6  11   0.5813   0.3862   0.8941   0.1251  -0.1902  -0.1535   0.00    0.0
2345 479455.000   44.399834069    8.937704991   108.3226   6  12   0.5788   0.3845   0.8908   0.1245  -0.1897  -0.1526   0.00    0.0
2345 479456.000   44.399834054    8.937704991   108.3076   6  11   0.5769   0.3828   0.8879   0.1238  -0.1893  -0.1494   0.00    0.0
2345 479457.000   44.399834035    8.937704979   108.2946   6  11   0.5751   0.3812   0.8850   0.1231  -0.1888  -0.1462   0.00    0.0
2345 479458.000   44.399833327    8.937705030   108.2104   6  12   0.5726   0.3795   0.8818   0.1226  -0.1883  -0.1455   0.00    0.0
2345 479459.000   44.399832634    8.937705068   108.1343   6  12   0.5701   0.3779   0.8787   0.1221  -0.1878  -0.1447   0.00    0.0
2345 479460.000   44.399831997    8.937705102   108.0652   6  12   0.5677   0.3763   0.8756   0.1216  -0.1873  -0.1440   0.00    0.0
2345 479461.000   44.399831417    8.937705129   107.9998   6  12   0.5653   0.3748   0.8725   0.1210  -0.1868  -0.1433   0.00    0.0
2345 479462.000   44.399830818    8.937705161   107.9344   6  12   0.5630   0.3732   0.8695   0.1205  -0.1863  -0.1426   0.00    0.0
2345 479463.000   44.399830274    8.937705176   107.8763   6  12   0.5607   0.3717   0.8665   0.1200  -0.1858  -0.1419   0.00    0.0
2345 479464.000   44.399829761    8.937705200   107.8236   6  12   0.5584   0.3702   0.8635   0.1196  -0.1853  -0.1412   0.00    0.0
2345 479465.000   44.399829297    8.937705212   107.7764   6  12   0.5561   0.3687   0.8606   0.1191  -0.1849  -0.1405   0.00    0.0
2345 479466.000   44.399828862    8.937705236   107.7340   6  12   0.5539   0.3672   0.8577   0.1186  -0.1844  -0.1398   0.00    0.0
2345 479467.000   44.399828482    8.937705240   107.6991   6  12   0.5516   0.3657   0.8549   0.1181  -0.1839  -0.1391   0.00    0.0
2345 479468.000   44.399828188    8.937705240   107.6707   6  12   0.5495   0.3643   0.8521   0.1176  -0.1835  -0.1384   0.00    0.0
2345 479469.000   44.399827961    8.937705231   107.6502   6  12   0.5473   0.3629   0.8493   0.1172  -0.1830  -0.1378   0.00    0.0
2345 479470.000   44.399827820    8.937705227   107.6404   6  12   0.5452   0.3615   0.8466   0.1167  -0.1826  -0.1371   0.00    0.0
2345 479471.000   44.399827735    8.937705217   107.6339   6  12   0.5431   0.3601   0.8439   0.1163  -0.1821  -0.1364   0.00    0.0
2345 479472.000   44.399827723    8.937705190   107.6350   6  12   0.5410   0.3587   0.8412   0.1158  -0.1817  -0.1358   0.00    0.0
2345 479473.000   44.399827757    8.937705143   107.6405   6  12   0.5389   0.3573   0.8385   0.1154  -0.1813  -0.1351   0.00    0.0
2345 479474.000   44.399827894    8.937705086   107.6599   6  12   0.5369   0.3560   0.8359   0.1149  -0.1809  -0.1345   0.00    0.0
2345 479475.000   44.399828076    8.937705006   107.6809   6  12   0.5349   0.3547   0.8334   0.1145  -0.1805  -0.1339   0.00    0.0
2345 479476.000   44.399828303    8.937704926   107.7092   6  12   0.5329   0.3534   0.8308   0.1141  -0.1800  -0.1332   0.00    0.0
2345 479477.000   44.399828559    8.937704846   107.7405   6  12   0.5309   0.3521   0.8283   0.1137  -0.1796  -0.1326   0.00    0.0
2345 479478.000   44.399828780    8.937704762   107.7690   6  12   0.5290   0.3508   0.8258   0.1132  -0.1792  -0.1320   0.00    0.0
2345 479479.000   44.399829045    8.937704684   107.8045   6  12   0.5270   0.3495   0.8233   0.1128  -0.1788  -0.1314   0.00    0.0
2345 479480.000   44.399829353    8.937704607   107.8427   6  12   0.5251   0.3483   0.8209   0.1124  -0.1784  -0.1307   0.00    0.0
2345 479481.000   44.399829680    8.937704527   107.8830   6  12   0.5232   0.3470   0.8185   0.1120  -0.1781  -0.1301   0.00    0.0
2345 479482.000   44.399830034    8.937704458   107.9252   6  12   0.5214   0.3458   0.8161   0.1116  -0.1777  -0.1295   0.00    0.0
2345 479483.000   44.399830371    8.937704381   107.9645   6  12   0.5195   0.3446   0.8138   0.1112  -0.1773  -0.1289   0.00    0.0
2345 479484.000   44.399830708    8.937704294   108.0015   6  12   0.5177   0.3434   0.8115   0.1108  -0.1769  -0.1283   0.00    0.0
2345 479485.000   44.399831039    8.937704212   108.0350   6  12   0.5159   0.3422   0.8092   0.1104  -0.1766  -0.1277   0.00    0.0
2345 479486.000   44.399831364    8.937704131   108.0683   6  12   0.5141   0.3410   0.8069   0.1100  -0.1762  -0.1271   0.00    0.0
2345 479487.000   44.399831674    8.937704060   108.1016   6  12   0.5123   0.3398   0.8046   0.1097  -0.1758  -0.1266   0.00    0.0
2345 479488.000   44.399831942    8.937704003   108.1292   6  12   0.5106   0.3387   0.8024   0.1093  -0.1755  -0.1260   0.00    0.0
2345 479489.000   44.399832200    8.937703946   108.1556   6  12   0.5089   0.3375   0.8002   0.1089  -0.1751  -0.1254   0.00    0.0
2345 479490.000   44.399832416    8.937703887   108.1744   6  12   0.5072   0.3364   0.7980   0.1085  -0.1748  -0.1248   0.00    0.0
2345 479491.000   44.399832626    8.937703821   108.1894   6  12   0.5055   0.3353   0.7959   0.1082  -0.1744  -0.1243   0.00    0.0
2345 479492.000   44.399832809    8.937703759   108.2035   6  12   0.5038   0.3342   0.7938   0.1078  -0.1741  -0.1237   0.00    0.0
2345 479493.000   44.399832956    8.937703717   108.2124   6  12   0.5021   0.3331   0.7917   0.1074  -0.1738  -0.1231   0.00    0.0
2345 479494.000   44.399833089    8.937703678   108.2211   6  12   0.5005   0.3320   0.7896   0.1071  -0.1734  -0.1226   0.00    0.0
2345 479495.000   44.399833200    8.937703655   108.2277   6  12   0.4988   0.3309   0.7875   0.1067  -0.1731  -0.1220   0.00    0.0
2345 479496.000   44.399833318    8.937703637   108.2374   6  12   0.4972   0.3298   0.7855   0.1064  -0.1728  -0.1215   0.00    0.0
2345 479497.000   44.399833426    8.937703635   108.2450   6  12   0.4956   0.3288   0.7834   0.1060  -0.1724  -0.1209   0.00    0.0
2345 479498.000   44.399833530    8.937703626   108.2545   6  12   0.4940   0.3277   0.7814   0.1057  -0.1721  -0.1204   0.00    0.0
2345 479499.000   44.399833646    8.937703621   108.2639   6  12   0.4925   0.3267   0.7795   0.1053  -0.1718  -0.1199   0.00    0.0
2345 479500.000   44.399833777    8.937703612   108.2761   6  12   0.4909   0.3257   0.7775   0.1050  -0.1715  -0.1193   0.00    0.0
2345 479501.000   44.399833912    8.937703611   108.2843   6  12   0.4894   0.3246   0.7755   0.1047  -0.1712  -0.1188   0.00    0.0
2345 479502.000   44.399834066    8.937703608   108.2938   6  12   0.4879   0.3236   0.7736   0.1043  -0.1709  -0.1183   0.00    0.0
2345 479503.000   44.399834216    8.937703607   108.2993   6  12   0.4864   0.3226   0.7717   0.1040  -0.1706  -0.1177   0.00    0.0
2345 479504.000   44.399834360    8.937703615   108.3052   6  12   0.4849   0.3216   0.7698   0.1037  -0.1703  -0.1172   0.00    0.0
2345 479505.000   44.399834521    8.937703635   108.3102   6  12   0.4834   0.3207   0.7680   0.1034  -0.1700  -0.1167   0.00    0.0
2345 479506.000   44.399834654    8.937703669   108.3119   6  12   0.4819   0.3197   0.7661   0.1030  -0.1697  -0.1162   0.00    0.0
2345 479507.000   44.399834815    8.937703700   108.3157   6  12   0.4805   0.3187   0.7643   0.1027  -0.1694  -0.1157   0.00    0.0
2345 479508.000   44.399834965    8.937703737   108.3194   6  12   0.4790   0.3178   0.7625   0.1024  -0.1691  -0.1152   0.00    0.0
2345 479509.000   44.399835083    8.937703792   108.3207   6  12   0.4776   0.3168   0.7607   0.1021  -0.1688  -0.1147   0.00    0.0
2345 479510.000   44.399835178    8.937703857   108.3208   6  12   0.4762   0.3159   0.7589   0.1018  -0.1685  -0.1142   0.00    0.0
2345 479511.000   44.399835266    8.937703914   108.3221   6  12   0.4748   0.3150   0.7571   0.1015  -0.1683  -0.1137   0.00    0.0
2345 479512.000   44.399835335    8.937703977   108.3232   6  12   0.4734   0.3140   0.7554   0.1012  -0.1680  -0.1132   0.00    0.0
2345 479513.000   44.399835408    8.937704031   108.3230   6  12   0.4720   0.3131   0.7537   0.1009  -0.1677  -0.1127   0.00    0.0
2345 479514.000   44.399835475    8.937704072   108.3225   6  12   0.4706   0.3122   0.7519   0.1006  -0.1674  -0.1122   0.00    0.0
2345 479515.000   44.399835532    8.937704110   108.3195   6  12   0.4693   0.3113   0.7502   0.1003  -0.1672  -0.1117   0.00    0.0
2345 479516.000   44.399835554    8.937704145   108.3134   6  12   0.4679   0.3104   0.7486   0.1000  -0.1669  -0.1112   0.00    0.0
2345 479517.000   44.399835572    8.937704182   108.3058   6  12   0.4666   0.3096   0.7469   0.0997  -0.1666  -0.1107   0.00    0.0
2345 479518.000   44.399835578    8.937704211   108.2977   6  12   0.4653   0.3087   0.7452   0.0994  -0.1664  -0.1102   0.00    0.0
2345 479519.000   44.399835556    8.937704244   108.2889   6  12   0.4640   0.3078   0.7436   0.0991  -0.1661  -0.1098   0.00    0.0
2345 479520.000   44.399835558    8.937704276   108.2834   6  12   0.4627   0.3070   0.7420   0.0988  -0.1659  -0.1093   0.00    0.0
2345 479521.000   44.399835566    8.937704301   108.2783   6  12   0.4614   0.3061   0.7404   0.0986  -0.1656  -0.1088   0.00    0.0
2345 479522.000   44.399835609    8.937704314   108.2734   6  12   0.4601   0.3053   0.7388   0.0983  -0.1654  -0.1083   0.00    0.0
2345 479523.000   44.399835638    8.937704326   108.2675   6  12   0.4589   0.3044   0.7372   0.0980  -0.1651  -0.1079   0.00    0.0
2345 479524.000   44.399835695    8.937704343   108.2648   6  12   0.4576   0.3036   0.7356   0.0977  -0.1649  -0.1074   0.00    0.0
2345 479525.000   44.399835773    8.937704364   108.2652   6  12   0.4564   0.3028   0.7341   0.0975  -0.1646  -0.1069   0.00    0.0
2345 479526.000   44.399835873    8.937704387   108.2674   6  12   0.4551   0.3020   0.7325   0.0972  -0.1644  -0.1065   0.00    0.0
2345 479527.000   44.399835975    8.937704411   108.2671   6  12   0.4539   0.3011   0.7310   0.0969  -0.1641  -0.1060   0.00    0.0
2345 479528.000   44.399836112    8.937704425   108.2711   6  12   0.4527   0.3003   0.7295   0.0967  -0.1639  -0.1056   0.00    0.0
2345 479529.000   44.399836240    8.937704439   108.2739   6  12   0.4515   0.2995   0.7280   0.0964  -0.1637  -0.1051   0.00    0.0
2345 479530.000   44.399836367    8.937704453   108.2749   6  12   0.4503   0.2987   0.7265   0.0961  -0.1634  -0.1047   0.00    0.0
2345 479531.000   44.399836512    8.937704455   108.2784   6  12   0.4491   0.2980   0.7250   0.0959  -0.1632  -0.1042   0.00    0.0
2345 479532.000   44.399836641    8.937704458   108.2817   6  12   0.4479   0.2972   0.7236   0.0956  -0.1630  -0.1038   0.00    0.0
2345 479533.000   44.399836795    8.937704458   108.2884   6  12   0.4468   0.2964   0.7221   0.0954  -0.1627  -0.1033   0.00    0.0
2345 479534.000   44.399836950    8.937704446   108.2959   6  12   0.4456   0.2956   0.7207   0.0951  -0.1625  -0.1029   0.00    0.0
2345 479535.000   44.399837108    8.937704431   108.3022   6  12   0.4445   0.2949   0.7192   0.0948  -0.1623  -0.1024   0.00    0.0
2345 479536.000   44.399837271    8.937704418   108.3099   6  12   0.4433   0.2941   0.7178   0.0946  -0.1621  -0.1020   0.00    0.0
2345 479537.000   44.399837424    8.937704399   108.3153   6  12   0.4422   0.2934   0.7164   0.0943  -0.1618  -0.1016   0.00    0.0
2345 479538.000   44.399837575    8.937704376   108.3203   6  12   0.4411   0.2926   0.7150   0.0941  -0.1616  -0.1011   0.00    0.0
2345 479539.000   44.399837712    8.937704357   108.3227   6  12   0.4400   0.2919   0.7137   0.0939  -0.1614  -0.1007   0.00    0.0
2345 479540.000   44.399837835    8.937704338   108.3252   6  12   0.4389   0.2912   0.7123   0.0936  -0.1612  -0.1003   0.00    0.0
2345 479541.000   44.399837975    8.937704324   108.3313   6  12   0.4378   0.2904   0.7109   0.0934  -0.1610  -0.0998   0.00    0.0
2345 479542.000   44.399838089    8.937704316   108.3353   6  12   0.4367   0.2897   0.7096   0.0931  -0.1608  -0.0994   0.00    0.0
2345 479543.000   44.399838178    8.937704320   108.3371   6  12   0.4356   0.2890   0.7082   0.0929  -0.1606  -0.0990   0.00    0.0
2345 479544.000   44.399838231    8.937704323   108.3362   6  12   0.4345   0.2883   0.7069   0.0927  -0.1603  -0.0986   0.00    0.0
2345 479545.000   44.399838250    8.937704332   108.3331   6  12   0.4335   0.2876   0.7056   0.0924  -0.1601  -0.0981   0.00    0.0
2345 479546.000   44.399838234    8.937704339   108.3259   6  12   0.4324   0.2869   0.7043   0.0922  -0.1599  -0.0977   0.00    0.0
2345 479547.000   44.399838185    8.937704343   108.3168   6  12   0.4314   0.2862   0.7030   0.0920  -0.1597  -0.0973   0.00    0.0
2345 479548.000   44.399838106    8.937704338   108.3053   6  12   0.4303   0.2855   0.7017   0.0917  -0.1595  -0.0969   0.00    0.0
2345 479549.000   44.399837987    8.937704338   108.2912   6  12   0.4293   0.2848   0.7004   0.0915  -0.1593  -0.0965   0.00    0.0
2345 479550.000   44.399837826    8.937704340   108.2729   6  12   0.4283   0.2841   0.6992   0.0913  -0.1591  -0.0960   0.00    0.0
2345 479551.000   44.399837651    8.937704351   108.2519   6  12   0.4272   0.2835   0.6979   0.0910  -0.1589  -0.0956   0.00    0.0
2345 479552.000   44.399837474    8.937704361   108.2316   6  12   0.4262   0.2828   0.6967   0.0908  -0.1587  -0.0952   0.00    0.0
2345 479553.000   44.399837290    8.937704374   108.2102   6  12   0.4252   0.2821   0.6954   0.0906  -0.1585  -0.0948   0.00    0.0
2345 479554.000   44.399837075    8.937704385   108.1883   6  12   0.4242   0.2815   0.6942   0.0904  -0.1583  -0.0944   0.00    0.0
2345 479555.000   44.399836870    8.937704395   108.1645   6  12   0.4232   0.2808   0.6930   0.0902  -0.1582  -0.0940   0.00    0.0
2345 479556.000   44.399836689    8.937704406   108.1425   6  12   0.4223   0.2801   0.6918   0.0899  -0.1580  -0.0936   0.00    0.0
2345 479557.000   44.399836542    8.937704410   108.1244   6  12   0.4213   0.2795   0.6906   0.0897  -0.1578  -0.0932   0.00    0.0
2345 479558.000   44.399836367    8.937704432   108.1034   6  12   0.4203   0.2789   0.6894   0.0895  -0.1576  -0.0928   0.00    0.0
2345 479559.000   44.399836180    8.937704460   108.0836   6  12   0.4193   0.2782   0.6882   0.0893  -0.1574  -0.0924   0.00    0.0
2345 479560.000   44.399836004    8.937704480   108.0625   6  12   0.4184   0.2776   0.6870   0.0891  -0.1572  -0.0920   0.00    0.0
2345 479561.000   44.399835821    8.937704509   108.0412   6  12   0.4174   0.2769   0.6859   0.0889  -0.1570  -0.0916   0.00    0.0
2345 479562.000   44.399835630    8.937704539   108.0175   6  12   0.4165   0.2763   0.6847   0.0887  -0.1569  -0.0912   0.00    0.0
2345 479563.000   44.399835473    8.937704568   107.9953   6  12   0.4156   0.2757   0.6835   0.0884  -0.1567  -0.0908   0.00    0.0
2345 479564.000   44.399835349    8.937704603   107.9769   6  12   0.4146   0.2751   0.6824   0.0882  -0.1565  -0.0904   0.00    0.0
2345 479565.000   44.399835267    8.937704634   107.9612   6  12   0.4137   0.2745   0.6813   0.0880  -0.1563  -0.0900   0.00    0.0
2345 479566.000   44.399835199    8.937704670   107.9457   6  12   0.4128   0.2739   0.6801   0.0878  -0.1561  -0.0896   0.00    0.0
2345 479567.000   44.399835152    8.937704703   107.9315   6  12   0.4119   0.2733   0.6790   0.0876  -0.1560  -0.0893   0.00    0.0
2345 479568.000   44.399835180    8.937704736   107.9246   6  12   0.4110   0.2727   0.6779   0.0874  -0.1558  -0.0889   0.00    0.0
2345 479569.000   44.399835292    8.937704763   107.9256   6  12   0.4101   0.2721   0.6768   0.0872  -0.1556  -0.0885   0.00    0.0
2345 479570.000   44.399835381    8.937704792   107.9249   6  12   0.4092   0.2715   0.6757   0.0870  -0.1555  -0.0881   0.00    0.0
2345 479571.000   44.399835486    8.937704816   107.9252   6  12   0.4083   0.2709   0.6746   0.0868  -0.1553  -0.0877   0.00    0.0
2345 479572.000   44.399835568    8.937704843   107.9236   6  12   0.4074   0.2703   0.6736   0.0866  -0.1551  -0.0873   0.00    0.0
2345 479573.000   44.399835668    8.937704866   107.9223   6  12   0.4065   0.2697   0.6725   0.0864  -0.1550  -0.0870   0.00    0.0
2345 479574.000   44.399835809    8.937704887   107.9265   6  12   0.4057   0.2691   0.6714   0.0862  -0.1548  -0.0866   0.00    0.0
2345 479575.000   44.399835954    8.937704909   107.9301   6  12   0.4048   0.2686   0.6704   0.0861  -0.1546  -0.0862   0.00    0.0
2345 479576.000   44.399836111    8.937704928   107.9361   6  12   0.4040   0.2680   0.6693   0.0859  -0.1545  -0.0858   0.00    0.0
2345 479577.000   44.399836234    8.937704952   107.9393   6  12   0.4031   0.2674   0.6683   0.0857  -0.1543  -0.0854   0.00    0.0
2345 479578.000   44.399836394    8.937704975   107.9464   6  12   0.4023   0.2669   0.6672   0.0855  -0.1541  -0.0851   0.00    0.0
2345 479579.000   44.399836544    8.937705001   107.9512   6  12   0.4014   0.2663   0.6662   0.0853  -0.1540  -0.0847   0.00    0.0
2345 479580.000   44.399836682    8.937705032   107.9568   6  12   0.4006   0.2657   0.6652   0.0851  -0.1538  -0.0843   0.00    0.0
2345 479581.000   44.399836792    8.937705060   107.9587   6  12   0.3997   0.2652   0.6642   0.0849  -0.1537  -0.0840   0.00    0.0
2345 479582.000   44.399836888    8.937705095   107.9594   6  12   0.3989   0.2646   0.6632   0.0847  -0.1535  -0.0836   0.00    0.0
2345 479583.000   44.399836969    8.937705126   107.9580   6  12   0.3981   0.2641   0.6622   0.0845  -0.1533  -0.0832   0.00    0.0
2345 479584.000   44.399837018    8.937705159   107.9533   6  12   0.3973   0.2635   0.6612   0.0844  -0.1532  -0.0828   0.00    0.0
2345 479585.000   44.399837043    8.937705195   107.9460   6  12   0.3965   0.2630   0.6602   0.0842  -0.1530  -0.0825   0.00    0.0
2345 479586.000   44.399837038    8.937705227   107.9356   6  12   0.3957   0.2625   0.6592   0.0840  -0.1529  -0.0821   0.00    0.0
2345 479587.000   44.399837015    8.937705265   107.9250   6  12   0.3949   0.2619   0.6582   0.0838  -0.1527  -0.0817   0.00    0.0
2345 479588.000   44.399836956    8.937705301   107.9118   6  12   0.3941   0.2614   0.6573   0.0836  -0.1526  -0.0814   0.00    0.0
2345 479589.000   44.399836881    8.937705334   107.8996   6  12   0.3933   0.2609   0.6563   0.0835  -0.1524  -0.0810   0.00    0.0
2345 479590.000   44.399836777    8.937705362   107.8844   6  12   0.3925   0.2604   0.6553   0.0833  -0.1523  -0.0807   0.00    0.0
2345 479591.000   44.399836659    8.937705389   107.8690   6  12   0.3917   0.2598   0.6544   0.0831  -0.1521  -0.0803   0.00    0.0
2345 479592.000   44.399836539    8.937705413   107.8527   6  12   0.3909   0.2593   0.6535   0.0829  -0.1520  -0.0799   0.00    0.0
2345 479593.000   44.399836399    8.937705430   107.8349   6  12   0.3902   0.2588   0.6525   0.0828  -0.1518  -0.0796   0.00    0.0
2345 479594.000   44.399836241    8.937705451   107.8160   6  12   0.3894   0.2583   0.6516   0.0826  -0.1517  -0.0792   0.00    0.0
2345 479595.000   44.399836072    8.937705462   107.7955   6  12   0.3886   0.2578   0.6507   0.0824  -0.1515  -0.0789   0.00    0.0
2345 479596.000   44.399835886    8.937705471   107.7749   6  12   0.3879   0.2573   0.6497   0.0823  -0.1514  -0.0785   0.00    0.0
2345 479597.000   44.399835728    8.937705470   107.7567   6  12   0.3871   0.2568   0.6488   0.0821  -0.1513  -0.0781   0.00    0.0
2345 479598.000   44.399835585    8.937705468   107.7415   6  12   0.3864   0.2563   0.6479   0.0819  -0.1511  -0.0778   0.00    0.0
2345 479599.000   44.399835424    8.937705456   107.7247   6  12   0.3856   0.2558   0.6470   0.0817  -0.1510  -0.0774   0.00    0.0
2345 479600.000   44.399835270    8.937705448   107.7095   6  12   0.3849   0.2553   0.6461   0.0816  -0.1508  -0.0771   0.00    0.0
2345 479601.000   44.399835134    8.937705437   107.6945   6  12   0.3841   0.2548   0.6452   0.0814  -0.1507  -0.0767   0.00    0.0
2345 479602.000   44.399834999    8.937705425   107.6788   6  12   0.3834   0.2543   0.6443   0.0812  -0.1505  -0.0764   0.00    0.0
2345 479603.000   44.399834889    8.937705413   107.6646   6  12   0.3827   0.2538   0.6435   0.0811  -0.1504  -0.0760   0.00    0.0
2345 479604.000   44.399834788    8.937705404   107.6514   6  12   0.3820   0.2534   0.6426   0.0809  -0.1503  -0.0757   0.00    0.0
2345 479605.000   44.399834694    8.937705396   107.6378   6  12   0.3812   0.2529   0.6417   0.0808  -0.1501  -0.0753   0.00    0.0
2345 479606.000   44.399834630    8.937705390   107.6255   6  12   0.3805   0.2524   0.6408   0.0806  -0.1500  -0.0750   0.00    0.0
2345 479607.000   44.399834583    8.937705388   107.6141   6  12   0.3798   0.2519   0.6400   0.0804  -0.1499  -0.0746   0.00    0.0
2345 479608.000   44.399834559    8.937705391   107.6048   6  12   0.3791   0.2515   0.6391   0.0803  -0.1497  -0.0743   0.00    0.0
2345 479609.000   44.399834555    8.937705387   107.5951   6  12   0.3784   0.2510   0.6383   0.0801  -0.1496  -0.0739   0.00    0.0
2345 479610.000   44.399834558    8.937705381   107.5863   6  12   0.3777   0.2505   0.6374   0.0800  -0.1495  -0.0736   0.00    0.0
2345 479611.000   44.399834574    8.937705385   107.5787   6  12   0.3770   0.2501   0.6366   0.0798  -0.1493  -0.0732   0.00    0.0
2345 479612.000   44.399834589    8.937705387   107.5707   6  12   0.3763   0.2496   0.6358   0.0796  -0.1492  -0.0729   0.00    0.0
2345 479613.000   44.399834616    8.937705384   107.5634   6  12   0.3756   0.2491   0.6349   0.0795  -0.1491  -0.0725   0.00    0.0
2345 479614.000   44.399834644    8.937705385   107.5574   6  12   0.3749   0.2487   0.6341   0.0793  -0.1490  -0.0722   0.00    0.0
2345 479615.000   44.399834677    8.937705391   107.5532   6  12   0.3743   0.2482   0.6333   0.0792  -0.1488  -0.0718   0.00    0.0
2345 479616.000   44.399834710    8.937705392   107.5477   6  12   0.3736   0.2478   0.6325   0.0790  -0.1487  -0.0715   0.00    0.0
2345 479617.000   44.399834727    8.937705395   107.5401   6  12   0.3729   0.2473   0.6317   0.0789  -0.1486  -0.0712   0.00    0.0
2345 479618.000   44.399834758    8.937705397   107.5318   6  12   0.3722   0.2469   0.6309   0.0787  -0.1484  -0.0708   0.00    0.0
2345 479619.000   44.399834798    8.937705404   107.5237   6  12   0.3716   0.2464   0.6300   0.0786  -0.1483  -0.0705   0.00    0.0
2345 479620.000   44.399834820    8.937705414   107.5129   6  12   0.3709   0.2460   0.6293   0.0784  -0.1482  -0.0701   0.00    0.0
2345 479621.000   44.399834844    8.937705429   107.5012   6  12   0.3703   0.2456   0.6285   0.0783  -0.1481  -0.0698   0.00    0.0
2345 479622.000   44.399834866    8.937705444   107.4882   6  12   0.3696   0.2451   0.6277   0.0781  -0.1479  -0.0694   0.00    0.0
2345 479623.000   44.399834873    8.937705461   107.4729   6  12   0.3690   0.2447   0.6269   0.0780  -0.1478  -0.0691   0.00    0.0
2345 479624.000   44.399834874    8.937705476   107.4580   6  12   0.3683   0.2443   0.6261   0.0778  -0.1477  -0.0688   0.00    0.0
2345 479625.000   44.399834881    8.937705491   107.4427   6  12   0.3677   0.2438   0.6253   0.0777  -0.1476  -0.0684   0.00    0.0
2345 479626.000   44.399834884    8.937705503   107.4285   6  12   0.3670   0.2434   0.6246   0.0775  -0.1475  -0.0681   0.00    0.0
2345 479627.000   44.399834880    8.937705509   107.4118   6  12   0.3664   0.2430   0.6238   0.0774  -0.1473  -0.0677   0.00    0.0
2345 479628.000   44.399834883    8.937705517   107.3950   6  12   0.3658   0.2426   0.6230   0.0772  -0.1472  -0.0674   0.00    0.0
2345 479629.000   44.399834881    8.937705524   107.3764   6  12   0.3651   0.2421   0.6223   0.0771  -0.1471  -0.0671   0.00    0.0
2345 479630.000   44.399834867    8.937705535   107.3580   6  12   0.3645   0.2417   0.6215   0.0770  -0.1470  -0.0667   0.00    0.0
2345 479631.000   44.399834853    8.937705547   107.3404   6  12   0.3639   0.2413   0.6208   0.0768  -0.1469  -0.0664   0.00    0.0
2345 479632.000   44.399834844    8.937705558   107.3233   6  12   0.3632   0.2409   0.6200   0.0767  -0.1468  -0.0660   0.00    0.0
2345 479633.000   44.399834837    8.937705573   107.3064   6  12   0.3626   0.2405   0.6193   0.0765  -0.1466  -0.0657   0.00    0.0
2345 479634.000   44.399834833    8.937705588   107.2900   6  12   0.3620   0.2401   0.6186   0.0764  -0.1465  -0.0654   0.00    0.0
2345 479635.000   44.399834819    8.937705611   107.2716   6  12   0.3614   0.2397   0.6178   0.0763  -0.1464  -0.0650   0.00    0.0
2345 479636.000   44.399834809    8.937705629   107.2530   6  12   0.3608   0.2392   0.6171   0.0761  -0.1463  -0.0647   0.00    0.0
2345 479637.000   44.399834796    8.937705652   107.2349   6  12   0.3602   0.2388   0.6164   0.0760  -0.1462  -0.0644   0.00    0.0
2345 479638.000   44.399834786    8.937705666   107.2186   6  12   0.3596   0.2384   0.6157   0.0758  -0.1461  -0.0640   0.00    0.0
2345 479639.000   44.399834769    8.937705681   107.2019   6  12   0.3590   0.2380   0.6149   0.0757  -0.1460  -0.0637   0.00    0.0
2345 479640.000   44.399834736    8.937705694   107.1839   6  12   0.3584   0.2376   0.6142   0.0756  -0.1458  -0.0634   0.00    0.0
2345 479641.000   44.399834725    8.937705706   107.1690   6  12   0.3578   0.2373   0.6135   0.0754  -0.1457  -0.0630   0.00    0.0
2345 479642.000   44.399834720    8.937705722   107.1528   6  12   0.3572   0.2369   0.6128   0.0753  -0.1456  -0.0627   0.00    0.0
2345 479643.000   44.399834710    8.937705740   107.1362   6  12   0.3566   0.2365   0.6121   0.0752  -0.1455  -0.0623   0.00    0.0
2345 479644.000   44.399834692    8.937705758   107.1195   6  12   0.3560   0.2361   0.6114   0.0750  -0.1454  -0.0620   0.00    0.0
2345 479645.000   44.399834667    8.937705769   107.1022   6  12   0.3555   0.2357   0.6107   0.0749  -0.1453  -0.0617   0.00    0.0
2345 479646.000   44.399834641    8.937705782   107.0855   6  12   0.3549   0.2353   0.6100   0.0748  -0.1452  -0.0613   0.00    0.0
2345 479647.000   44.399834603    8.937705786   107.0690   6  12   0.3543   0.2349   0.6093   0.0746  -0.1451  -0.0610   0.00    0.0
2345 479648.000   44.399834555    8.937705792   107.0507   6  12   0.3537   0.2345   0.6087   0.0745  -0.1450  -0.0607   0.00    0.0
2345 479649.000   44.399834513    8.937705793   107.0323   6  12   0.3532   0.2342   0.6080   0.0744  -0.1449  -0.0603   0.00    0.0
2345 479650.000   44.399834463    8.937705796   107.0125   6  12   0.3526   0.2338   0.6073   0.0742  -0.1448  -0.0600   0.00    0.0
2345 479651.000   44.399834403    8.937705801   106.9918   6  12   0.3520   0.2334   0.6066   0.0741  -0.1446  -0.0597   0.00    0.0
2345 479652.000   44.399834348    8.937705805   106.9726   6  12   0.3515   0.2330   0.6060   0.0740  -0.1445  -0.0593   0.00    0.0
2345 479653.000   44.399834295    8.937705798   106.9525   6  12   0.3509   0.2327   0.6053   0.0739  -0.1444  -0.0590   0.00    0.0
2345 479654.000   44.399834227    8.937705790   106.9327   6  12   0.3504   0.2323   0.6046   0.0737  -0.1443  -0.0587   0.00    0.0
2345 479655.000   44.399834146    8.937705789   106.9140   6  12   0.3498   0.2319   0.6040   0.0736  -0.1442  -0.0583   0.00    0.0
2345 479656.000   44.399834055    8.937705790   106.8949   6  12   0.3492   0.2315   0.6033   0.0735  -0.1441  -0.0580   0.00    0.0
2345 479657.000   44.399833957    8.937705790   106.8747   6  12   0.3487   0.2312   0.6027   0.0733  -0.1440  -0.0577   0.00    0.0
2345 479658.000   44.399833865    8.937705791   106.8553   6  12   0.3482   0.2308   0.6020   0.0732  -0.1439  -0.0573   0.00    0.0
2345 479659.000   44.399833753    8.937705793   106.8349   6  12   0.3476   0.2305   0.6014   0.0731  -0.1438  -0.0570   0.00    0.0
2345 479660.000   44.399833629    8.937705796   106.8138   6  12   0.3471   0.2301   0.6007   0.0730  -0.1437  -0.0567   0.00    0.0
2345 479661.000   44.399833511    8.937705803   106.7929   6  12   0.3465   0.2297   0.6001   0.0728  -0.1436  -0.0563   0.00    0.0
2345 479662.000   44.399833395    8.937705811   106.7725   6  12   0.3460   0.2294   0.5994   0.0727  -0.1435  -0.0560   0.00    0.0
2345 479663.000   44.399833271    8.937705825   106.7519   6  12   0.3455   0.2290   0.5988   0.0726  -0.1434  -0.0556   0.00    0.0
2345 479664.000   44.399833141    8.937705841   106.7318   6  12   0.3449   0.2287   0.5982   0.0725  -0.1433  -0.0553   0.00    0.0
2345 479665.000   44.399833001    8.937705856   106.7101   6  12   0.3444   0.2283   0.5975   0.0724  -0.1432  -0.0550   0.00    0.0
2345 479687.000   44.399832855    8.937705859   106.6854   6  12   0.3439   0.2280   0.5969   0.0722  -0.1431  -0.0546   0.00    0.0
2345 479688.000   44.399832705    8.937705861   106.6608   6  12   0.3434   0.2276   0.5963   0.0721  -0.1430  -0.0543   0.00    0.0
2345 479689.000   44.399832569    8.937705861   106.6378   6  12   0.3428   0.2273   0.5957   0.0720  -0.1429  -0.0539   0.00    0.0
2345 479690.000   44.399832450    8.937705860   106.6166   6  12   0.3423   0.2269   0.5951   0.0719  -0.1428  -0.0536   0.00    0.0
2345 479691.000   44.399832330    8.937705858   106.5956   6  12   0.3418   0.2266   0.5945   0.0717  -0.1427  -0.0532   0.00    0.0
2345 479692.000   44.399832214    8.937705862   106.5768   6  12   0.3413   0.2262   0.5939   0.0716  -0.1426  -0.0529   0.00    0.0
2345 479693.000   44.399832106    8.937705864   106.5585   6  12   0.3408   0.2259   0.5933   0.0715  -0.1425  -0.0526   0.00    0.0
2345 479694.000   44.399832024    8.937705865   106.5432   6  12   0.3403   0.2255   0.5927   0.0714  -0.1424  -0.0522   0.00    0.0
2345 479695.000   44.399831953    8.937705865   106.5286   6  12   0.3398   0.2252   0.5921   0.0713  -0.1423  -0.0519   0.00    0.0
2345 479696.000   44.399831903    8.937705863   106.5149   6  12   0.3393   0.2249   0.5915   0.0712  -0.1422  -0.0515   0.00    0.0
2345 479697.000   44.399831870    8.937705866   106.5029   6  12   0.3388   0.2245   0.5909   0.0710  -0.1422  -0.0512   0.00    0.0
2345 479698.000   44.399831854    8.937705866   106.4925   6  12   0.3383   0.2242   0.5903   0.0709  -0.1421  -0.0508   0.00    0.0
2345 479699.000   44.399831866    8.937705870   106.4839   6  12   0.3378   0.2239   0.5897   0.0708  -0.1420  -0.0505   0.00    0.0
2345 479700.000   44.399831896    8.937705876   106.4780   6  12   0.3373   0.2235   0.5891   0.0707  -0.1419  -0.0501   0.00    0.0
2345 479701.000   44.399831934    8.937705883   106.4740   6  12   0.3368   0.2232   0.5885   0.0706  -0.1418  -0.0498   0.00    0.0
2345 479702.000   44.399831997    8.937705888   106.4730   6  12   0.3363   0.2229   0.5880   0.0705  -0.1417  -0.0494   0.00    0.0
2345 479703.000   44.399832072    8.937705887   106.4731   6  12   0.3358   0.2225   0.5874   0.0704  -0.1416  -0.0491   0.00    0.0
2345 479704.000   44.399832131    8.937705880   106.4707   6  12   0.3353   0.2222   0.5868   0.0702  -0.1415  -0.0487   0.00    0.0
2345 479705.000   44.399832206    8.937705876   106.4711   6  12   0.3348   0.2219   0.5862   0.0701  -0.1414  -0.0484   0.00    0.0
2345 479706.000   44.399832293    8.937705870   106.4722   6  12   0.3343   0.2216   0.5857   0.0700  -0.1413  -0.0480   0.00    0.0
2345 479707.000   44.399832377    8.937705861   106.4723   6  12   0.3339   0.2213   0.5851   0.0699  -0.1412  -0.0477   0.00    0.0
2345 479708.000   44.399832472    8.937705854   106.4730   6  12   0.3334   0.2209   0.5845   0.0698  -0.1411  -0.0473   0.00    0.0
2345 479709.000   44.399832571    8.937705849   106.4738   6  12   0.3329   0.2206   0.5840   0.0697  -0.1411  -0.0470   0.00    0.0
2345 479710.000   44.399832676    8.937705840   106.4751   6  12   0.3324   0.2203   0.5834   0.0696  -0.1410  -0.0466   0.00    0.0
2345 479711.000   44.399832787    8.937705830   106.4777   6  12   0.3320   0.2200   0.5829   0.0695  -0.1409  -0.0463   0.00    0.0
2345 479712.000   44.399832895    8.937705820   106.4800   6  12   0.3315   0.2197   0.5823   0.0693  -0.1408  -0.0459   0.00    0.0
2345 479713.000   44.399832999    8.937705804   106.4815   6  12   0.3310   0.2194   0.5818   0.0692  -0.1407  -0.0455   0.00    0.0
2345 479714.000   44.399833092    8.937705776   106.4822   6  12   0.3306   0.2190   0.5812   0.0691  -0.1406  -0.0452   0.00    0.0
2345 479715.000   44.399833194    8.937705751   106.4834   6  12   0.3301   0.2187   0.5807   0.0690  -0.1405  -0.0448   0.00    0.0
2345 479716.000   44.399833300    8.937705727   106.4860   6  12   0.3296   0.2184   0.5801   0.0689  -0.1404  -0.0445   0.00    0.0
2345 479717.000   44.399833408    8.937705702   106.4891   6  12   0.3292   0.2181   0.5796   0.0688  -0.1404  -0.0441   0.00    0.0
2345 479718.000   44.399833515    8.937705671   106.4916   6  12   0.3287   0.2178   0.5790   0.0687  -0.1403  -0.0437   0.00    0.0
2345 479719.000   44.399833622    8.937705643   106.4951   6  12   0.3283   0.2175   0.5785   0.0686  -0.1402  -0.0434   0.00    0.0
2345 479720.000   44.399833720    8.937705609   106.4984   6  12   0.3278   0.2172   0.5780   0.0685  -0.1401  -0.0430   0.00    0.0
2345 479721.000   44.399833808    8.937705578   106.5003   6  12   0.3274   0.2169   0.5775   0.0684  -0.1400  -0.0426   0.00    0.0
2345 479722.000   44.399833900    8.937705542   106.5023   6  12   0.3269   0.2166   0.5769   0.0683  -0.1399  -0.0423   0.00    0.0
2345 479723.000   44.399833989    8.937705506   106.5029   6  12   0.3265   0.2163   0.5764   0.0682  -0.1398  -0.0419   0.00    0.0
2345 479724.000   44.399834080    8.937705472   106.5029   6  12   0.3260   0.2160   0.5759   0.0681  -0.1398  -0.0415   0.00    0.0
2345 479725.000   44.399834167    8.937705435   106.5018   6  12   0.3256   0.2157   0.5754   0.0680  -0.1397  -0.0412   0.00    0.0
2345 479726.000   44.399834245    8.937705405   106.4998   6  12   0.3251   0.2154   0.5748   0.0679  -0.1396  -0.0408   0.00    0.0
2345 479727.000   44.399834338    8.937705372   106.4988   6  12   0.3247   0.2151   0.5743   0.0678  -0.1395  -0.0404   0.00    0.0
2345 479728.000   44.399834438    8.937705345   106.4985   6  12   0.3243   0.2148   0.5738   0.0676  -0.1394  -0.0400   0.00    0.0
2345 479729.000   44.399834532    8.937705318   106.4974   6  12   0.3238   0.2145   0.5733   0.0675  -0.1393  -0.0397   0.00    0.0
2345 479730.000   44.399834620    8.937705291   106.4949   6  12   0.3234   0.2142   0.5728   0.0674  -0.1393  -0.0393   0.00    0.0
2345 479731.000   44.399834719    8.937705264   106.4934   6  12   0.3229   0.2139   0.5723   0.0673  -0.1392  -0.0389   0.00    0.0
2345 479732.000   44.399834818    8.937705231   106.4902   6  12   0.3225   0.2136   0.5718   0.0672  -0.1391  -0.0385   0.00    0.0
2345 479733.000   44.399834931    8.937705198   106.4893   6  12   0.3221   0.2134   0.5713   0.0671  -0.1390  -0.0381   0.00    0.0
2345 479734.000   44.399835009    8.937705166   106.4861   6  12   0.3217   0.2131   0.5708   0.0670  -0.1389  -0.0377   0.00    0.0
2345 479735.000   44.399835064    8.937705141   106.4816   6  12   0.3212   0.2128   0.5703   0.0669  -0.1389  -0.0373   0.00    0.0
2345 479736.000   44.399835111    8.937705119   106.4763   6  12   0.3208   0.2125   0.5698   0.0668  -0.1388  -0.0370   0.00    0.0
2345 479737.000   44.399835127    8.937705098   106.4673   6  12   0.3204   0.2122   0.5693   0.0667  -0.1387  -0.0366   0.00    0.0
2345 479738.000   44.399835103    8.937705082   106.4560   6  12   0.3200   0.2119   0.5688   0.0666  -0.1386  -0.0362   0.00    0.0
2345 479739.000   44.399835017    8.937705071   106.4396   6  12   0.3195   0.2116   0.5683   0.0665  -0.1385  -0.0358   0.00    0.0
2345 479740.000   44.399834846    8.937705064   106.4167   6  12   0.3191   0.2114   0.5678   0.0664  -0.1385  -0.0354   0.00    0.0
2345 479741.000   44.399834862    8.937705050   106.4081   6  11   0.3188   0.2111   0.5673   0.0663  -0.1384  -0.0344   0.00    0.0
2345 479742.000   44.399834875    8.937705039   106.3995   6  11   0.3185   0.2108   0.5669   0.0662  -0.1383  -0.0334   0.00    0.0
2345 479743.000   44.399834893    8.937705029   106.3899   6  11   0.3181   0.2105   0.5664   0.0661  -0.1382  -0.0323   0.00    0.0
2345 479744.000   44.399834912    8.937705025   106.3805   6  11   0.3178   0.2103   0.5660   0.0660  -0.1381  -0.0313   0.00    0.0
2345 479745.000   44.399834933    8.937705020   106.3696   6  11   0.3175   0.2100   0.5655   0.0659  -0.1381  -0.0302   0.00    0.0
2345 479746.000   44.399834955    8.937705012   106.3588   6  11   0.3172   0.2097   0.5651   0.0658  -0.1380  -0.0290   0.00    0.0
2345 479747.000   44.399834982    8.937705006   106.3487   6  11   0.3169   0.2094   0.5646   0.0657  -0.1379  -0.0279   0.00    0.0
2345 479748.000   44.399835011    8.937705006   106.3395   6  11   0.3165   0.2092   0.5642   0.0656  -0.1378  -0.0267   0.00    0.0
2345 479749.000   44.399835038    8.937705006   106.3313   6  11   0.3162   0.2089   0.5637   0.0655  -0.1378  -0.0255   0.00    0.0
2345 479750.000   44.399835066    8.937705005   106.3222   6  11   0.3159   0.2086   0.5633   0.0654  -0.1377  -0.0242   0.00    0.0
2345 479751.000   44.399835087    8.937705004   106.3139   6  11   0.3156   0.2084   0.5628   0.0653  -0.1376  -0.0228   0.00    0.0
2345 479752.000   44.399835111    8.937704996   106.3059   6  11   0.3153   0.2081   0.5624   0.0652  -0.1375  -0.0214   0.00    0.0
2345 479753.000   44.399835136    8.937704988   106.2982   6  11   0.3149   0.2078   0.5619   0.0651  -0.1375  -0.0199   0.00    0.0
2345 479754.000   44.399835159    8.937704977   106.2902   6  11   0.3146   0.2076   0.5615   0.0650  -0.1374  -0.0183   0.00    0.0
2345 479755.000   44.399835182    8.937704964   106.2832   6  11   0.3143   0.2073   0.5611   0.0650  -0.1373  -0.0165   0.00    0.0
2345 479756.000   44.399835204    8.937704948   106.2764   6  11   0.3140   0.2070   0.5606   0.0649  -0.1373  -0.0145   0.00    0.0
2345 479757.000   44.399835221    8.937704923   106.2693   6  11   0.3137   0.2068   0.5602   0.0648  -0.1372  -0.0123   0.00    0.0
2345 479758.000   44.399835242    8.937704899   106.2622   6  11   0.3134   0.2065   0.5598   0.0647  -0.1371  -0.0096   0.00    0.0
2345 479759.000   44.399835262    8.937704873   106.2555   6  11   0.3131   0.2062   0.5593   0.0646  -0.1370  -0.0057   0.00    0.0
2345 479760.000   44.399835283    8.937704844   106.2482   6  11   0.3128   0.2060   0.5589   0.0645  -0.1370   0.0051   0.00    0.0
2345 479761.000   44.399835301    8.937704807   106.2411   6  11   0.3125   0.2057   0.5585   0.0644  -0.1369   0.0092   0.00    0.0
2345 479762.000   44.399835317    8.937704769   106.2341   6  11   0.3122   0.2055   0.5580   0.0643  -0.1368   0.0119   0.00    0.0
2345 479763.000   44.399835337    8.937704731   106.2284   6  11   0.3118   0.2052   0.5576   0.0642  -0.1367   0.0141   0.00    0.0
2345 479764.000   44.399835357    8.937704695   106.2232   6  11   0.3115   0.2050   0.5572   0.0641  -0.1367   0.0160   0.00    0.0
2345 479765.000   44.399835376    8.937704659   106.2186   6  11   0.3112   0.2047   0.5568   0.0640  -0.1366   0.0177   0.00    0.0
2345 479766.000   44.399835392    8.937704619   106.2143   6  11   0.3109   0.2044   0.5563   0.0639  -0.1365   0.0192   0.00    0.0
2345 479767.000   44.399835272    8.937704576   106.1997   6  12   0.3105   0.2042   0.5559   0.0638  -0.1365   0.0197   0.00    0.0
2345 479768.000   44.399835230    8.937704533   106.1900   6  12   0.3102   0.2039   0.5555   0.0638  -0.1364   0.0202   0.00    0.0
2345 479769.000   44.399835220    8.937704486   106.1838   6  12   0.3098   0.2037   0.5550   0.0637  -0.1363   0.0206   0.00    0.0
2345 479770.000   44.399835239    8.937704440   106.1811   6  12   0.3094   0.2034   0.5546   0.0636  -0.1362   0.0211   0.00    0.0
2345 479771.000   44.399835324    8.937704396   106.1840   6  12   0.3090   0.2032   0.5542   0.0635  -0.1362   0.0216   0.00    0.0
2345 479772.000   44.399835444    8.937704359   106.1912   6  12   0.3086   0.2029   0.5537   0.0634  -0.1361   0.0220   0.00    0.0
2345 479773.000   44.399835594    8.937704322   106.2010   6  12   0.3083   0.2027   0.5533   0.0633  -0.1360   0.0224   0.00    0.0
2345 479774.000   44.399835778    8.937704290   106.2139   6  12   0.3079   0.2025   0.5529   0.0632  -0.1360   0.0229   0.00    0.0
2345 479775.000   44.399835789    8.937704260   106.2133   6  11   0.3076   0.2022   0.5524   0.0631  -0.1359   0.0240   0.00    0.0
2345 479776.000   44.399835804    8.937704229   106.2118   6  11   0.3073   0.2020   0.5520   0.0631  -0.1358   0.0250   0.00    0.0
2345 479777.000   44.399835817    8.937704200   106.2107   6  11   0.3070   0.2017   0.5516   0.0630  -0.1358   0.0260   0.00    0.0
2345 479778.000   44.399835825    8.937704170   106.2098   6  11   0.3067   0.2015   0.5512   0.0629  -0.1357   0.0270   0.00    0.0
2345 479779.000   44.399835831    8.937704141   106.2093   6  11   0.3064   0.2012   0.5508   0.0628  -0.1356   0.0279   0.00    0.0
2345 479780.000   44.399835838    8.937704118   106.2086   6  11   0.3061   0.2010   0.5504   0.0627  -0.1355   0.0288   0.00    0.0
2345 479781.000   44.399835843    8.937704094   106.2080   6  11   0.3059   0.2008   0.5500   0.0626  -0.1355   0.0297   0.00    0.0
2345 479782.000   44.399835851    8.937704075   106.2066   6  11   0.3056   0.2005   0.5496   0.0625  -0.1354   0.0305   0.00    0.0
2345 479783.000   44.399835857    8.937704058   106.2045   6  11   0.3053   0.2003   0.5492   0.0625  -0.1353   0.0313   0.00    0.0
2345 479784.000   44.399836025    8.937704046   106.2145   6  12   0.3049   0.2000   0.5488   0.0624  -0.1353   0.0315   0.00    0.0
2345 479785.000   44.399836136    8.937704037   106.2200   6  12   0.3046   0.1998   0.5484   0.0623  -0.1352   0.0318   0.00    0.0
2345 479786.000   44.399836193    8.937704030   106.2215   6  12   0.3042   0.1996   0.5480   0.0622  -0.1351   0.0321   0.00    0.0
2345 479787.000   44.399836218    8.937704024   106.2208   6  12   0.3038   0.1993   0.5476   0.0621  -0.1351   0.0323   0.00    0.0
2345 479788.000   44.399836212    8.937704017   106.2175   6  12   0.3035   0.1991   0.5472   0.0620  -0.1350   0.0326   0.00    0.0
2345 479789.000   44.399836182    8.937704006   106.2122   6  12   0.3031   0.1989   0.5468   0.0620  -0.1349   0.0328   0.00    0.0
2345 479790.000   44.399836120    8.937703996   106.2044   6  12   0.3028   0.1986   0.5464   0.0619  -0.1349   0.0331   0.00    0.0
2345 479791.000   44.399836032    8.937703985   106.1943   6  12   0.3024   0.1984   0.5460   0.0618  -0.1348   0.0333   0.00    0.0
2345 479792.000   44.399835939    8.937703977   106.1832   6  12   0.3021   0.1982   0.5455   0.0617  -0.1347   0.0336   0.00    0.0
2345 479793.000   44.399835843    8.937703972   106.1725   6  12   0.3017   0.1979   0.5451   0.0616  -0.1347   0.0338   0.00    0.0
2345 479794.000   44.399835733    8.937703966   106.1596   6  12   0.3014   0.1977   0.5447   0.0615  -0.1346   0.0341   0.00    0.0
2345 479795.000   44.399835611    8.937703964   106.1468   6  12   0.3010   0.1975   0.5443   0.0615  -0.1345   0.0343   0.00    0.0
2345 479796.000   44.399835618    8.937703966   106.1435   6  11   0.3007   0.1973   0.5440   0.0614  -0.1345   0.0350   0.00    0.0
2345 479797.000   44.399835627    8.937703965   106.1404   6  11   0.3005   0.1970   0.5436   0.0613  -0.1344   0.0356   0.00    0.0
2345 479798.000   44.399835638    8.937703964   106.1371   6  11   0.3002   0.1968   0.5432   0.0612  -0.1343   0.0362   0.00    0.0
2345 479799.000   44.399835647    8.937703966   106.1336   6  11   0.2999   0.1966   0.5428   0.0612  -0.1343   0.0368   0.00    0.0
2345 479800.000   44.399835655    8.937703969   106.1298   6  11   0.2996   0.1963   0.5425   0.0611  -0.1342   0.0374   0.00    0.0
2345 479801.000   44.399835664    8.937703968   106.1266   6  11   0.2994   0.1961   0.5421   0.0610  -0.1342   0.0380   0.00    0.0
2345 479802.000   44.399835673    8.937703968   106.1236   6  11   0.2991   0.1959   0.5417   0.0609  -0.1341   0.0385   0.00    0.0
2345 479803.000   44.399835686    8.937703965   106.1196   6  11   0.2988   0.1957   0.5413   0.0608  -0.1340   0.0391   0.00    0.0
2345 479804.000   44.399835698    8.937703962   106.1155   6  11   0.2986   0.1955   0.5410   0.0608  -0.1340   0.0396   0.00    0.0
2345 479805.000   44.399835713    8.937703952   106.1116   6  11   0.2983   0.1952   0.5406   0.0607  -0.1339   0.0401   0.00    0.0
2345 479806.000   44.399835726    8.937703944   106.1086   6  11   0.2980   0.1950   0.5402   0.0606  -0.1338   0.0406   0.00    0.0
2345 479807.000   44.399835590    8.937703935   106.0949   6  12   0.2977   0.1948   0.5398   0.0605  -0.1338   0.0408   0.00    0.0
2345 479808.000   44.399835457    8.937703925   106.0808   6  12   0.2974   0.1946   0.5395   0.0605  -0.1337   0.0410   0.00    0.0
2345 479809.000   44.399835342    8.937703916   106.0691   6  12   0.2970   0.1944   0.5391   0.0604  -0.1336   0.0411   0.00    0.0
2345 479810.000   44.399835247    8.937703904   106.0584   6  12   0.2967   0.1941   0.5387   0.0603  -0.1336   0.0413   0.00    0.0
2345 479811.000   44.399835156    8.937703890   106.0482   6  12   0.2963   0.1939   0.5383   0.0602  -0.1335   0.0415   0.00    0.0
2345 479812.000   44.399835044    8.937703876   106.0378   6  12   0.2960   0.1937   0.5380   0.0601  -0.1335   0.0416   0.00    0.0
