%  GPST          latitude(deg) longitude(deg)  height(m)   Q  ns   sdn(m)   sde(m)   sdu(m)  sdne(m)  sdeu(m)  sdun(m) age(s)  ratio
2343 212206.000   44.399822534    8.937657952   108.6869   6  16   4.1933   3.3486   8.9485   1.0160  -2.8531  -2.4268   0.00    0.0
2343 212207.000   44.399821786    8.937657047   108.6906   6  16   2.9792   2.3771   6.3856   0.7242  -2.0332  -1.7405   0.00    0.0
2343 212208.000   44.399821540    8.937656363   108.8148   6  16   2.4364   1.9434   5.2316   0.5929  -1.6641  -1.4285   0.00    0.0
2343 212209.000   44.399821677    8.937655661   108.9339   6  16   2.1117   1.6841   4.5395   0.5142  -1.4427  -1.2406   0.00    0.0
2343 212210.000   44.399821751    8.937655200   108.8979   6  16   1.8897   1.5069   4.0659   0.4602  -1.2911  -1.1118   0.00    0.0
2343 212211.000   44.399821812    8.937654808   108.9361   6  16   1.7256   1.3760   3.7156   0.4203  -1.1789  -1.0164   0.00    0.0
2343 212212.000   44.399821607    8.937654468   109.0182   6  16   1.5980   1.2741   3.4431   0.3893  -1.0916  -0.9422   0.00    0.0
2343 212213.000   44.399821521    8.937654292   109.0487   6  16   1.4950   1.1920   3.2233   0.3642  -1.0211  -0.8822   0.00    0.0
2343 212214.000   44.399821356    8.937654042   109.1006   6  16   1.4097   1.1239   3.0412   0.3434  -0.9627  -0.8326   0.00    0.0
2343 212215.000   44.399821051    8.937653924   109.1310   6  16   1.3375   1.0663   2.8871   0.3258  -0.9132  -0.7905   0.00    0.0
2343 212216.000   44.399820878    8.937653929   109.1530   6  16   1.2754   1.0167   2.7545   0.3107  -0.8706  -0.7543   0.00    0.0
2343 212217.000   44.399820719    8.937654033   109.1751   6  16   1.2212   0.9735   2.6389   0.2975  -0.8334  -0.7228   0.00    0.0
2343 212218.000   44.399820621    8.937654292   109.2307   6  16   1.1734   0.9353   2.5369   0.2858  -0.8005  -0.6949   0.00    0.0
2343 212219.000   44.399820618    8.937654584   109.2522   6  17   1.1302   0.8971   2.4340   0.2812  -0.7575  -0.6767   0.00    0.0
2343 212220.000   44.399820675    8.937654897   109.2784   6  17   1.0914   0.8634   2.3434   0.2760  -0.7208  -0.6593   0.00    0.0
2343 212221.000   44.399820808    8.937655322   109.2968   6  17   1.0564   0.8333   2.2626   0.2708  -0.6887  -0.6429   0.00    0.0
2343 212222.000   44.399820931    8.937655544   109.3584   6  17   1.0246   0.8062   2.1900   0.2656  -0.6605  -0.6275   0.00    0.0
2343 212223.000   44.399821028    8.937655782   109.3841   6  17   0.9955   0.7816   2.1241   0.2606  -0.6353  -0.6130   0.00    0.0
2343 212224.000   44.399821146    8.937656003   109.4120   6  17   0.9688   0.7591   2.0641   0.2557  -0.6126  -0.5994   0.00    0.0
2343 212225.000   44.399821236    8.937656209   109.4447   6  17   0.9441   0.7385   2.0091   0.2510  -0.5922  -0.5866   0.00    0.0
2343 212226.000   44.399821366    8.937656338   109.4919   6  17   0.9212   0.7195   1.9584   0.2464  -0.5736  -0.5746   0.00    0.0
2343 212227.000   44.399821538    8.937656531   109.5246   6  17   0.8999   0.7019   1.9116   0.2421  -0.5566  -0.5632   0.00    0.0
2343 212228.000   44.399821586    8.937656702   109.5507   6  17   0.8800   0.6855   1.8680   0.2379  -0.5410  -0.5525   0.00    0.0
2343 212229.000   44.399821676    8.937656847   109.5876   6  17   0.8614   0.6702   1.8275   0.2339  -0.5266  -0.5423   0.00    0.0
2343 212230.000   44.399821815    8.937656972   109.6216   6  17   0.8439   0.6559   1.7896   0.2301  -0.5133  -0.5327   0.00    0.0
2343 212231.000   44.399821958    8.937657077   109.6364   6  17   0.8274   0.6425   1.7540   0.2265  -0.5009  -0.5235   0.00    0.0
2343 212232.000   44.399822106    8.937657204   109.6503   6  17   0.8119   0.6299   1.7206   0.2229  -0.4893  -0.5148   0.00    0.0
2343 212233.000   44.399822186    8.937657258   109.6774   6  17   0.7972   0.6180   1.6892   0.2196  -0.4785  -0.5066   0.00    0.0
2343 212234.000   44.399822273    8.937657287   109.7019   6  17   0.7832   0.6067   1.6594   0.2164  -0.4684  -0.4987   0.00    0.0
2343 212235.000   44.399822362    8.937657343   109.7292   6  17   0.7700   0.5961   1.6313   0.2133  -0.4588  -0.4912   0.00    0.0
2343 212236.000   44.399822486    8.937657426   109.7503   6  17   0.7575   0.5860   1.6046   0.2103  -0.4498  -0.4840   0.00    0.0
2343 212237.000   44.399822527    8.937657494   109.7638   6  17   0.7455   0.5763   1.5793   0.2074  -0.4413  -0.4771   0.00    0.0
2343 212238.000   44.399822625    8.937657594   109.7673   6  17   0.7341   0.5672   1.5552   0.2047  -0.4333  -0.4705   0.00    0.0
2343 212239.000   44.399822755    8.937657658   109.7767   6  17   0.7232   0.5585   1.5322   0.2020  -0.4257  -0.4642   0.00    0.0
2343 212240.000   44.399822843    8.937657753   109.8004   6  17   0.7127   0.5501   1.5103   0.1995  -0.4184  -0.4581   0.00    0.0
2343 212241.000   44.399822922    8.937657871   109.8019   6  17   0.7027   0.5421   1.4893   0.1970  -0.4115  -0.4522   0.00    0.0
2343 212242.000   44.399823045    8.937657944   109.8105   6  17   0.6931   0.5345   1.4693   0.1946  -0.4050  -0.4466   0.00    0.0
2343 212243.000   44.399823207    8.937657986   109.8108   6  17   0.6839   0.5272   1.4501   0.1923  -0.3987  -0.4412   0.00    0.0
2343 212244.000   44.399823327    8.937658066   109.8109   6  17   0.6751   0.5201   1.4316   0.1901  -0.3927  -0.4360   0.00    0.0
2343 212245.000   44.399823456    8.937658104   109.8085   6  17   0.6666   0.5134   1.4139   0.1879  -0.3870  -0.4310   0.00    0.0
2343 212246.000   44.399823584    8.937658148   109.8139   6  17   0.6584   0.5069   1.3969   0.1859  -0.3815  -0.4261   0.00    0.0
2343 212247.000   44.399823694    8.937658165   109.8230   6  17   0.6504   0.5006   1.3805   0.1839  -0.3762  -0.4215   0.00    0.0
2343 212248.000   44.399823815    8.937658181   109.8324   6  17   0.6428   0.4946   1.3648   0.1819  -0.3712  -0.4169   0.00    0.0
2343 212249.000   44.399823905    8.937658213   109.8289   6  17   0.6355   0.4887   1.3496   0.1800  -0.3663  -0.4125   0.00    0.0
2343 212250.000   44.399824023    8.937658241   109.8077   6  17   0.6283   0.4831   1.3349   0.1782  -0.3616  -0.4083   0.00    0.0
2343 212251.000   44.399824115    8.937658283   109.7971   6  17   0.6215   0.4777   1.3207   0.1764  -0.3571  -0.4042   0.00    0.0
2343 212252.000   44.399824241    8.937658327   109.7797   6  17   0.6148   0.4724   1.3070   0.1747  -0.3528  -0.4002   0.00    0.0
2343 212253.000   44.399824332    8.937658429   109.7695   6  17   0.6083   0.4673   1.2938   0.1730  -0.3486  -0.3963   0.00    0.0
2343 212254.000   44.399824416    8.937658525   109.7526   6  17   0.6021   0.4624   1.2810   0.1714  -0.3445  -0.3926   0.00    0.0
2343 212255.000   44.399824497    8.937658605   109.7417   6  17   0.5960   0.4576   1.2686   0.1698  -0.3406  -0.3889   0.00    0.0
2343 212256.000   44.399824538    8.937658690   109.7353   6  17   0.5901   0.4530   1.2566   0.1682  -0.3368  -0.3854   0.00    0.0
2343 212257.000   44.399824558    8.937658747   109.7185   6  17   0.5844   0.4485   1.2449   0.1667  -0.3332  -0.3820   0.00    0.0
2343 212258.000   44.399824558    8.937658773   109.7063   6  17   0.5789   0.4442   1.2336   0.1653  -0.3296  -0.3786   0.00    0.0
2343 212259.000   44.399824576    8.937658784   109.6989   6  17   0.5735   0.4399   1.2226   0.1638  -0.3262  -0.3754   0.00    0.0
2343 212260.000   44.399824595    8.937658793   109.6846   6  17   0.5682   0.4358   1.2119   0.1624  -0.3228  -0.3722   0.00    0.0
2343 212261.000   44.399824617    8.937658812   109.6721   6  17   0.5631   0.4318   1.2016   0.1611  -0.3196  -0.3691   0.00    0.0
2343 212262.000   44.399824628    8.937658822   109.6608   6  17   0.5582   0.4279   1.1915   0.1598  -0.3165  -0.3661   0.00    0.0
2343 212263.000   44.399824637    8.937658860   109.6434   6  17   0.5533   0.4241   1.1817   0.1585  -0.3134  -0.3632   0.00    0.0
2343 212264.000   44.399824621    8.937658862   109.6304   6  17   0.5486   0.4204   1.1721   0.1572  -0.3104  -0.3603   0.00    0.0
2343 212265.000   44.399824603    8.937658832   109.6196   6  17   0.5440   0.4168   1.1628   0.1560  -0.3075  -0.3575   0.00    0.0
2343 212266.000   44.399824603    8.937658796   109.6203   6  17   0.5395   0.4133   1.1537   0.1548  -0.3047  -0.3548   0.00    0.0
2343 212267.000   44.399824567    8.937658786   109.6120   6  17   0.5351   0.4099   1.1449   0.1536  -0.3020  -0.3521   0.00    0.0
2343 212268.000   44.399824548    8.937658783   109.5973   6  17   0.5309   0.4066   1.1363   0.1525  -0.2993  -0.3495   0.00    0.0
2343 212269.000   44.399824529    8.937658799   109.5898   6  17   0.5267   0.4033   1.1279   0.1513  -0.2967  -0.3470   0.00    0.0
2343 212270.000   44.399824524    8.937658815   109.5832   6  17   0.5226   0.4001   1.1197   0.1502  -0.2942  -0.3445   0.00    0.0
2343 212271.000   44.399824515    8.937658825   109.5722   6  17   0.5186   0.3970   1.1117   0.1492  -0.2918  -0.3421   0.00    0.0
2343 212272.000   44.399824488    8.937658856   109.5570   6  17   0.5148   0.3940   1.1039   0.1481  -0.2893  -0.3397   0.00    0.0
2343 212273.000   44.399824472    8.937658883   109.5469   6  17   0.5110   0.3910   1.0963   0.1471  -0.2870  -0.3374   0.00    0.0
2343 212274.000   44.399824456    8.937658914   109.5394   6  17   0.5072   0.3881   1.0888   0.1461  -0.2847  -0.3351   0.00    0.0
2343 212275.000   44.399824455    8.937658959   109.5333   6  17   0.5036   0.3853   1.0815   0.1451  -0.2825  -0.3329   0.00    0.0
2343 212276.000   44.399824421    8.937659022   109.5318   6  17   0.5000   0.3825   1.0744   0.1441  -0.2803  -0.3308   0.00    0.0
