%  GPST          latitude(deg) longitude(deg)  height(m)   Q  ns   sdn(m)   sde(m)   sdu(m)  sdne(m)  sdeu(m)  sdun(m) age(s)  ratio
2345 253509.000   44.399805944    8.937669908   103.2058   6  19   4.4267   2.9356   7.7191  -1.0326   2.6701  -2.4551   0.00    0.0
2345 253510.000   44.399804286    8.937669981   103.1825   6  19   3.1481   2.0863   5.5069  -0.7381   1.9063  -1.7532   0.00    0.0
2345 253511.000   44.399803091    8.937670434   103.1509   6  19   2.5753   1.7063   4.5124  -0.6049   1.5614  -1.4362   0.00    0.0
2345 253512.000   44.399802783    8.937670687   103.0505   6  19   2.2325   1.4790   3.9165  -0.5249   1.3543  -1.2457   0.00    0.0
2345 253513.000   44.399802819    8.937670738   103.0889   6  19   1.9980   1.3235   3.5089  -0.4700   1.2125  -1.1152   0.00    0.0
2345 253514.000   44.399802510    8.937670778   103.0949   6  19   1.8246   1.2086   3.2076  -0.4295   1.1074  -1.0186   0.00    0.0
2345 253515.000   44.399802264    8.937670901   103.1522   6  19   1.6897   1.1192   2.9733  -0.3979   1.0257  -0.9434   0.00    0.0
2345 253516.000   44.399802115    8.937670985   103.1940   6  19   1.5810   1.0471   2.7845  -0.3724   0.9597  -0.8827   0.00    0.0
2345 253517.000   44.399802143    8.937671067   103.2545   6  19   1.4908   0.9873   2.6280  -0.3512   0.9050  -0.8323   0.00    0.0
2345 253518.000   44.399802050    8.937671396   103.3343   6  19   1.4145   0.9368   2.4957  -0.3333   0.8587  -0.7897   0.00    0.0
2345 253519.000   44.399802004    8.937671721   103.3480   6  19   1.3488   0.8933   2.3819  -0.3179   0.8188  -0.7530   0.00    0.0
2345 253520.000   44.399801943    8.937672097   103.4004   6  19   1.2915   0.8553   2.2827  -0.3045   0.7840  -0.7209   0.00    0.0
2345 253521.000   44.399801796    8.937672525   103.4535   6  19   1.2410   0.8218   2.1952  -0.2926   0.7533  -0.6927   0.00    0.0
2345 253522.000   44.399801651    8.937672841   103.5005   6  19   1.1959   0.7919   2.1173  -0.2820   0.7259  -0.6675   0.00    0.0
2345 253523.000   44.399801660    8.937673058   103.5416   6  19   1.1554   0.7651   2.0474  -0.2725   0.7013  -0.6448   0.00    0.0
2345 253524.000   44.399801683    8.937673203   103.5902   6  19   1.1188   0.7408   1.9841  -0.2639   0.6790  -0.6243   0.00    0.0
2345 253525.000   44.399801612    8.937673287   103.6254   6  19   1.0855   0.7188   1.9266  -0.2561   0.6587  -0.6056   0.00    0.0
2345 253526.000   44.399801617    8.937673454   103.6708   6  19   1.0549   0.6985   1.8740  -0.2490   0.6402  -0.5885   0.00    0.0
2345 253527.000   44.399801605    8.937673520   103.7008   6  19   1.0269   0.6799   1.8256  -0.2424   0.6231  -0.5728   0.00    0.0
2345 253528.000   44.399801604    8.937673600   103.7195   6  19   1.0009   0.6627   1.7809  -0.2363   0.6073  -0.5583   0.00    0.0
2345 253529.000   44.399801581    8.937673633   103.7250   6  19   0.9768   0.6467   1.7395  -0.2306   0.5926  -0.5448   0.00    0.0
2345 253530.000   44.399801463    8.937673642   103.7247   6  19   0.9544   0.6319   1.7009  -0.2254   0.5790  -0.5322   0.00    0.0
2345 253531.000   44.399801412    8.937673648   103.7410   6  19   0.9334   0.6180   1.6649  -0.2204   0.5662  -0.5205   0.00    0.0
2345 253532.000   44.399801368    8.937673660   103.7536   6  19   0.9138   0.6050   1.6313  -0.2158   0.5543  -0.5095   0.00    0.0
2345 253533.000   44.399801336    8.937673678   103.7668   6  19   0.8954   0.5928   1.5996  -0.2115   0.5431  -0.4991   0.00    0.0
2345 253534.000   44.399801270    8.937673670   103.7602   6  19   0.8780   0.5813   1.5699  -0.2074   0.5325  -0.4894   0.00    0.0
2345 253535.000   44.399801138    8.937673611   103.7603   6  19   0.8616   0.5704   1.5418  -0.2036   0.5225  -0.4802   0.00    0.0
2345 253536.000   44.399800997    8.937673579   103.7863   6  19   0.8461   0.5601   1.5153  -0.2000   0.5131  -0.4715   0.00    0.0
2345 253537.000   44.399800886    8.937673512   103.8004   6  19   0.8314   0.5504   1.4902  -0.1965   0.5041  -0.4633   0.00    0.0
2345 253538.000   44.399800771    8.937673369   103.7920   6  19   0.8175   0.5412   1.4663  -0.1932   0.4956  -0.4554   0.00    0.0
2345 253539.000   44.399800631    8.937673227   103.7779   6  19   0.8042   0.5324   1.4437  -0.1901   0.4875  -0.4480   0.00    0.0
2345 253540.000   44.399800555    8.937673124   103.7720   6  19   0.7916   0.5240   1.4221  -0.1872   0.4798  -0.4409   0.00    0.0
2345 253541.000   44.399800447    8.937673013   103.7680   6  19   0.7795   0.5160   1.4015  -0.1843   0.4725  -0.4341   0.00    0.0
2345 253542.000   44.399800343    8.937672891   103.7642   6  19   0.7680   0.5083   1.3819  -0.1816   0.4654  -0.4276   0.00    0.0
2345 253543.000   44.399800219    8.937672712   103.7500   6  19   0.7569   0.5010   1.3631  -0.1791   0.4587  -0.4214   0.00    0.0
2345 253544.000   44.399800081    8.937672482   103.7339   6  19   0.7464   0.4940   1.3451  -0.1766   0.4523  -0.4155   0.00    0.0
2345 253545.000   44.399799988    8.937672274   103.7245   6  19   0.7362   0.4873   1.3279  -0.1742   0.4461  -0.4098   0.00    0.0
2345 253546.000   44.399799935    8.937672054   103.7095   6  19   0.7265   0.4808   1.3113  -0.1719   0.4401  -0.4043   0.00    0.0
2345 253547.000   44.399799857    8.937671852   103.6958   6  19   0.7171   0.4746   1.2955  -0.1697   0.4344  -0.3991   0.00    0.0
2345 253548.000   44.399799722    8.937671622   103.6753   6  19   0.7081   0.4687   1.2802  -0.1676   0.4289  -0.3940   0.00    0.0
2345 253549.000   44.399799647    8.937671362   103.6507   6  19   0.6994   0.4629   1.2655  -0.1656   0.4236  -0.3891   0.00    0.0
2345 253550.000   44.399799590    8.937671166   103.6319   6  19   0.6911   0.4574   1.2513  -0.1636   0.4185  -0.3844   0.00    0.0
2345 253551.000   44.399799554    8.937670983   103.6081   6  19   0.6830   0.4520   1.2377  -0.1617   0.4136  -0.3799   0.00    0.0
2345 253552.000   44.399799494    8.937670748   103.5911   6  19   0.6752   0.4469   1.2245  -0.1599   0.4089  -0.3755   0.00    0.0
2345 253553.000   44.399799465    8.937670508   103.5646   6  19   0.6677   0.4419   1.2118  -0.1581   0.4043  -0.3713   0.00    0.0
2345 253554.000   44.399799453    8.937670301   103.5352   6  19   0.6604   0.4370   1.1994  -0.1564   0.3998  -0.3672   0.00    0.0
2345 253555.000   44.399799443    8.937670122   103.5146   6  19   0.6533   0.4324   1.1876  -0.1548   0.3955  -0.3632   0.00    0.0
2345 253556.000   44.399799391    8.937669971   103.4960   6  19   0.6465   0.4278   1.1760  -0.1532   0.3914  -0.3594   0.00    0.0
2345 253557.000   44.399799343    8.937669819   103.4801   6  19   0.6399   0.4234   1.1649  -0.1516   0.3873  -0.3557   0.00    0.0
2345 253558.000   44.399799313    8.937669710   103.4693   6  19   0.6335   0.4192   1.1541  -0.1501   0.3834  -0.3520   0.00    0.0
2345 253559.000   44.399799262    8.937669595   103.4558   6  19   0.6272   0.4150   1.1436  -0.1487   0.3796  -0.3485   0.00    0.0
