%  GPST          latitude(deg) longitude(deg)  height(m)   Q  ns   sdn(m)   sde(m)   sdu(m)  sdne(m)  sdeu(m)  sdun(m) age(s)  ratio
2343 302486.000   44.399809319    8.937674559   107.2408   6  16   4.0970   3.1685   7.6154   0.7572   1.9395   2.3459   0.00    0.0
2343 302487.000   44.399809599    8.937674391   107.3493   6  16   2.9141   2.2498   5.4263   0.5438   1.3839   1.6815   0.00    0.0
2343 302488.000   44.399808992    8.937675243   107.4028   6  16   2.3841   1.8395   4.4435   0.4462   1.1335   1.3795   0.00    0.0
2343 302489.000   44.399808513    8.937675435   107.4828   6  16   2.0667   1.5942   3.8549   0.3874   0.9833   1.1977   0.00    0.0
2343 302490.000   44.399808646    8.937674942   107.5342   6  16   1.8496   1.4265   3.4522   0.3469   0.8804   1.0731   0.00    0.0
2343 302491.000   44.399808690    8.937674715   107.5512   6  16   1.6891   1.3026   3.1546   0.3169   0.8043   0.9807   0.00    0.0
2343 302492.000   44.399808496    8.937674436   107.5743   6  16   1.5643   1.2062   2.9232   0.2935   0.7450   0.9088   0.00    0.0
2343 302493.000   44.399808248    8.937674039   107.5525   6  16   1.4635   1.1285   2.7365   0.2746   0.6972   0.8508   0.00    0.0
2343 302494.000   44.399808086    8.937673684   107.5524   6  16   1.3801   1.0641   2.5819   0.2590   0.6576   0.8027   0.00    0.0
2343 302495.000   44.399808057    8.937673362   107.4986   6  16   1.3094   1.0096   2.4511   0.2457   0.6240   0.7619   0.00    0.0
2343 302496.000   44.399807985    8.937672913   107.4546   6  16   1.2486   0.9627   2.3385   0.2342   0.5952   0.7269   0.00    0.0
2343 302497.000   44.399807709    8.937672470   107.4386   6  16   1.1955   0.9218   2.2404   0.2242   0.5700   0.6963   0.00    0.0
2343 302498.000   44.399807609    8.937672181   107.4095   6  16   1.1487   0.8857   2.1538   0.2154   0.5478   0.6692   0.00    0.0
2343 302499.000   44.399807517    8.937671856   107.3846   6  16   1.1070   0.8535   2.0767   0.2075   0.5280   0.6452   0.00    0.0
2343 302500.000   44.399807491    8.937671468   107.3822   6  16   1.0695   0.8246   2.0075   0.2005   0.5102   0.6236   0.00    0.0
2343 302501.000   44.399807381    8.937671164   107.3860   6  16   1.0356   0.7984   1.9448   0.1941   0.4941   0.6040   0.00    0.0
2343 302502.000   44.399807361    8.937670927   107.3935   6  16   1.0047   0.7746   1.8878   0.1882   0.4794   0.5862   0.00    0.0
2343 302503.000   44.399807308    8.937670726   107.3849   6  16   0.9764   0.7528   1.8357   0.1829   0.4660   0.5699   0.00    0.0
2343 302504.000   44.399807375    8.937670536   107.3690   6  16   0.9504   0.7328   1.7877   0.1780   0.4536   0.5549   0.00    0.0
2343 302505.000   44.399807350    8.937670425   107.3645   6  16   0.9264   0.7143   1.7434   0.1734   0.4422   0.5410   0.00    0.0
2343 302506.000   44.399807331    8.937670347   107.3580   6  16   0.9041   0.6971   1.7023   0.1692   0.4316   0.5282   0.00    0.0
2343 302507.000   44.399807281    8.937670262   107.3337   6  16   0.8833   0.6811   1.6641   0.1652   0.4218   0.5162   0.00    0.0
2343 302508.000   44.399807245    8.937670221   107.3261   6  16   0.8639   0.6661   1.6284   0.1616   0.4126   0.5050   0.00    0.0
2343 302509.000   44.399807155    8.937670229   107.3055   6  16   0.8457   0.6521   1.5950   0.1581   0.4039   0.4946   0.00    0.0
2343 302510.000   44.399807114    8.937670267   107.2873   6  16   0.8286   0.6389   1.5636   0.1549   0.3958   0.4847   0.00    0.0
2343 302511.000   44.399807093    8.937670185   107.2715   6  16   0.8126   0.6266   1.5340   0.1518   0.3882   0.4755   0.00    0.0
2343 302512.000   44.399807029    8.937670231   107.2610   6  16   0.7974   0.6149   1.5062   0.1489   0.3810   0.4667   0.00    0.0
2343 302513.000   44.399806946    8.937670249   107.2634   6  16   0.7830   0.6038   1.4798   0.1462   0.3742   0.4584   0.00    0.0
2343 302514.000   44.399806869    8.937670333   107.2608   6  16   0.7694   0.5933   1.4548   0.1436   0.3677   0.4506   0.00    0.0
2343 302515.000   44.399806842    8.937670445   107.2660   6  16   0.7565   0.5833   1.4311   0.1412   0.3616   0.4432   0.00    0.0
2343 302516.000   44.399806741    8.937670530   107.2610   6  16   0.7442   0.5739   1.4086   0.1388   0.3558   0.4361   0.00    0.0
2343 302517.000   44.399806672    8.937670584   107.2660   6  16   0.7325   0.5648   1.3871   0.1366   0.3502   0.4294   0.00    0.0
2343 302518.000   44.399806635    8.937670689   107.2623   6  16   0.7213   0.5562   1.3666   0.1345   0.3449   0.4229   0.00    0.0
2343 302519.000   44.399806568    8.937670865   107.2764   6  16   0.7106   0.5480   1.3471   0.1324   0.3398   0.4168   0.00    0.0
2343 302520.000   44.399806524    8.937671028   107.2658   6  16   0.7004   0.5401   1.3284   0.1305   0.3350   0.4109   0.00    0.0
2343 302521.000   44.399806473    8.937671159   107.2617   6  16   0.6906   0.5326   1.3105   0.1286   0.3304   0.4053   0.00    0.0
2343 302522.000   44.399806443    8.937671295   107.2617   6  16   0.6812   0.5253   1.2933   0.1268   0.3259   0.3999   0.00    0.0
2343 302523.000   44.399806396    8.937671459   107.2693   6  16   0.6721   0.5184   1.2768   0.1251   0.3216   0.3947   0.00    0.0
2343 302524.000   44.399806381    8.937671555   107.2602   6  16   0.6635   0.5117   1.2610   0.1235   0.3175   0.3897   0.00    0.0
2343 302525.000   44.399806371    8.937671636   107.2514   6  16   0.6551   0.5053   1.2458   0.1219   0.3136   0.3849   0.00    0.0
2343 302526.000   44.399806378    8.937671783   107.2415   6  16   0.6471   0.4991   1.2311   0.1203   0.3097   0.3803   0.00    0.0
2343 302527.000   44.399806409    8.937671939   107.2350   6  16   0.6393   0.4931   1.2170   0.1188   0.3061   0.3759   0.00    0.0
2343 302528.000   44.399806428    8.937672105   107.2263   6  16   0.6319   0.4874   1.2034   0.1174   0.3025   0.3716   0.00    0.0
2343 302529.000   44.399806449    8.937672295   107.2199   6  16   0.6246   0.4818   1.1902   0.1160   0.2991   0.3674   0.00    0.0
2343 302530.000   44.399806461    8.937672440   107.2138   6  16   0.6177   0.4764   1.1775   0.1147   0.2958   0.3634   0.00    0.0
2343 302531.000   44.399806504    8.937672517   107.2010   6  16   0.6109   0.4712   1.1652   0.1134   0.2926   0.3596   0.00    0.0
2343 302532.000   44.399806553    8.937672628   107.1939   6  16   0.6044   0.4662   1.1533   0.1122   0.2895   0.3558   0.00    0.0
2343 302533.000   44.399806622    8.937672738   107.1853   6  16   0.5980   0.4613   1.1418   0.1109   0.2865   0.3522   0.00    0.0
2343 302534.000   44.399806671    8.937672830   107.1745   6  16   0.5919   0.4566   1.1307   0.1098   0.2836   0.3487   0.00    0.0
2343 302535.000   44.399806703    8.937672911   107.1655   6  16   0.5859   0.4520   1.1199   0.1086   0.2808   0.3453   0.00    0.0
2343 302536.000   44.399806757    8.937672981   107.1500   6  16   0.5802   0.4476   1.1094   0.1075   0.2780   0.3420   0.00    0.0
2343 302537.000   44.399806832    8.937673040   107.1398   6  16   0.5746   0.4432   1.0992   0.1064   0.2754   0.3387   0.00    0.0
2343 302538.000   44.399806914    8.937673063   107.1273   6  16   0.5691   0.4390   1.0893   0.1054   0.2728   0.3356   0.00    0.0
2343 302539.000   44.399806969    8.937673060   107.1097   6  16   0.5638   0.4350   1.0797   0.1044   0.2703   0.3326   0.00    0.0
2343 302540.000   44.399807014    8.937673055   107.1011   6  16   0.5587   0.4310   1.0704   0.1034   0.2679   0.3296   0.00    0.0
2343 302541.000   44.399807041    8.937673041   107.0818   6  16   0.5536   0.4271   1.0613   0.1024   0.2655   0.3268   0.00    0.0
2343 302542.000   44.399807074    8.937673028   107.0569   6  16   0.5488   0.4234   1.0525   0.1015   0.2632   0.3240   0.00    0.0
2343 302543.000   44.399807078    8.937673037   107.0346   6  16   0.5440   0.4197   1.0439   0.1006   0.2609   0.3213   0.00    0.0
2343 302544.000   44.399807093    8.937673038   107.0092   6  16   0.5394   0.4162   1.0355   0.0997   0.2587   0.3186   0.00    0.0
2343 302545.000   44.399807131    8.937673016   106.9940   6  16   0.5349   0.4127   1.0274   0.0988   0.2566   0.3160   0.00    0.0
2343 302546.000   44.399807179    8.937672992   106.9768   6  16   0.5305   0.4093   1.0194   0.0980   0.2545   0.3135   0.00    0.0
2343 302547.000   44.399807193    8.937672990   106.9501   6  16   0.5262   0.4060   1.0116   0.0971   0.2525   0.3111   0.00    0.0
2343 302548.000   44.399807208    8.937672983   106.9318   6  16   0.5220   0.4028   1.0041   0.0963   0.2505   0.3087   0.00    0.0
2343 302549.000   44.399807241    8.937672943   106.9135   6  16   0.5179   0.3996   0.9967   0.0955   0.2485   0.3063   0.00    0.0
2343 302550.000   44.399807243    8.937672928   106.8925   6  16   0.5139   0.3965   0.9895   0.0948   0.2466   0.3040   0.00    0.0
2343 302551.000   44.399807235    8.937672919   106.8717   6  16   0.5100   0.3935   0.9824   0.0940   0.2448   0.3018   0.00    0.0
2343 302552.000   44.399807251    8.937672876   106.8609   6  16   0.5061   0.3906   0.9755   0.0933   0.2430   0.2996   0.00    0.0
2343 302553.000   44.399807271    8.937672851   106.8453   6  16   0.5024   0.3877   0.9688   0.0925   0.2412   0.2975   0.00    0.0
2343 302554.000   44.399807268    8.937672809   106.8324   6  16   0.4987   0.3849   0.9622   0.0918   0.2395   0.2954   0.00    0.0
2343 302555.000   44.399807268    8.937672776   106.8191   6  16   0.4952   0.3821   0.9558   0.0911   0.2378   0.2934   0.00    0.0
2343 302556.000   44.399807248    8.937672745   106.8173   6  16   0.4917   0.3794   0.9495   0.0905   0.2361   0.2914   0.00    0.0
2343 302557.000   44.399807206    8.937672726   106.8122   6  16   0.4882   0.3768   0.9433   0.0898   0.2345   0.2894   0.00    0.0
2343 302558.000   44.399807171    8.937672717   106.8015   6  16   0.4849   0.3742   0.9373   0.0892   0.2329   0.2875   0.00    0.0
2343 302559.000   44.399807140    8.937672702   106.7907   6  16   0.4816   0.3717   0.9314   0.0885   0.2313   0.2856   0.00    0.0
2343 302560.000   44.399807105    8.937672680   106.7768   6  16   0.4783   0.3692   0.9256   0.0879   0.2298   0.2838   0.00    0.0
2343 302561.000   44.399807071    8.937672636   106.7692   6  16   0.4752   0.3668   0.9199   0.0873   0.2283   0.2820   0.00    0.0
2343 302562.000   44.399807029    8.937672600   106.7570   6  16   0.4721   0.3644   0.9144   0.0867   0.2269   0.2802   0.00    0.0
2343 302563.000   44.399806985    8.937672585   106.7464   6  16   0.4690   0.3620   0.9089   0.0861   0.2254   0.2785   0.00    0.0
2343 302564.000   44.399806952    8.937672560   106.7337   6  16   0.4661   0.3597   0.9036   0.0855   0.2240   0.2768   0.00    0.0
2343 302565.000   44.399806943    8.937672528   106.7237   6  16   0.4631   0.3575   0.8983   0.0849   0.2226   0.2751   0.00    0.0
2343 302566.000   44.399806923    8.937672528   106.7184   6  16   0.4603   0.3553   0.8932   0.0844   0.2213   0.2735   0.00    0.0
2343 302567.000   44.399806878    8.937672549   106.7124   6  16   0.4575   0.3531   0.8882   0.0838   0.2199   0.2719   0.00    0.0
2343 302568.000   44.399806848    8.937672569   106.7106   6  16   0.4547   0.3510   0.8832   0.0833   0.2186   0.2703   0.00    0.0
2343 302569.000   44.399806808    8.937672577   106.7069   6  16   0.4520   0.3489   0.8784   0.0828   0.2173   0.2688   0.00    0.0
2343 302570.000   44.399806786    8.937672573   106.6973   6  16   0.4493   0.3468   0.8736   0.0823   0.2161   0.2673   0.00    0.0
2343 302571.000   44.399806755    8.937672529   106.6874   6  16   0.4467   0.3448   0.8689   0.0817   0.2148   0.2658   0.00    0.0
2343 302572.000   44.399806741    8.937672486   106.6832   6  16   0.4441   0.3428   0.8643   0.0812   0.2136   0.2643   0.00    0.0
2343 302573.000   44.399806727    8.937672425   106.6830   6  16   0.4416   0.3409   0.8598   0.0807   0.2124   0.2629   0.00    0.0
2343 302574.000   44.399806709    8.937672378   106.6849   6  16   0.4391   0.3390   0.8553   0.0803   0.2112   0.2614   0.00    0.0
2343 302575.000   44.399806701    8.937672369   106.6881   6  16   0.4366   0.3371   0.8510   0.0798   0.2101   0.2601   0.00    0.0
2343 302576.000   44.399806696    8.937672346   106.6920   6  16   0.4342   0.3352   0.8467   0.0793   0.2089   0.2587   0.00    0.0
2343 302577.000   44.399806689    8.937672336   106.6965   6  16   0.4318   0.3334   0.8425   0.0789   0.2078   0.2573   0.00    0.0
2343 302578.000   44.399806687    8.937672341   106.7003   6  16   0.4295   0.3316   0.8383   0.0784   0.2067   0.2560   0.00    0.0
2343 302579.000   44.399806665    8.937672354   106.7011   6  16   0.4272   0.3299   0.8342   0.0780   0.2056   0.2547   0.00    0.0
2343 302580.000   44.399806649    8.937672368   106.7052   6  16   0.4250   0.3281   0.8302   0.0775   0.2045   0.2534   0.00    0.0
2343 302581.000   44.399806639    8.937672384   106.7061   6  16   0.4227   0.3264   0.8263   0.0771   0.2035   0.2522   0.00    0.0
2343 302582.000   44.399806615    8.937672395   106.7090   6  16   0.4205   0.3247   0.8224   0.0766   0.2025   0.2509   0.00    0.0
2343 302583.000   44.399806600    8.937672401   106.7131   6  16   0.4184   0.3231   0.8185   0.0762   0.2014   0.2497   0.00    0.0
2343 302584.000   44.399806576    8.937672396   106.7134   6  16   0.4163   0.3214   0.8148   0.0758   0.2004   0.2485   0.00    0.0
2343 302585.000   44.399806541    8.937672414   106.7139   6  16   0.4142   0.3198   0.8111   0.0754   0.1994   0.2473   0.00    0.0
2343 302586.000   44.399806510    8.937672440   106.7126   6  16   0.4121   0.3182   0.8074   0.0750   0.1985   0.2461   0.00    0.0
2343 302587.000   44.399806482    8.937672476   106.7080   6  16   0.4101   0.3167   0.8038   0.0746   0.1975   0.2450   0.00    0.0
2343 302588.000   44.399806432    8.937672521   106.7069   6  16   0.4081   0.3151   0.8003   0.0742   0.1966   0.2439   0.00    0.0
2343 302589.000   44.399806383    8.937672551   106.6988   6  16   0.4061   0.3136   0.7968   0.0738   0.1956   0.2428   0.00    0.0
2343 302590.000   44.399806313    8.937672588   106.6933   6  16   0.4042   0.3121   0.7933   0.0734   0.1947   0.2417   0.00    0.0
2343 302591.000   44.399806273    8.937672616   106.6847   6  16   0.4023   0.3107   0.7900   0.0731   0.1938   0.2406   0.00    0.0
2343 302592.000   44.399806234    8.937672649   106.6792   6  16   0.4004   0.3092   0.7866   0.0727   0.1929   0.2395   0.00    0.0
2343 302593.000   44.399806184    8.937672662   106.6708   6  16   0.3985   0.3078   0.7833   0.0723   0.1920   0.2384   0.00    0.0
2343 302594.000   44.399806138    8.937672675   106.6666   6  16   0.3967   0.3064   0.7801   0.0720   0.1912   0.2374   0.00    0.0
2343 302595.000   44.399806097    8.937672682   106.6610   6  16   0.3949   0.3050   0.7769   0.0716   0.1903   0.2364   0.00    0.0
2343 302596.000   44.399806062    8.937672684   106.6558   6  16   0.3931   0.3036   0.7737   0.0713   0.1895   0.2354   0.00    0.0
2343 302597.000   44.399806021    8.937672687   106.6536   6  16   0.3913   0.3023   0.7706   0.0709   0.1886   0.2344   0.00    0.0
2343 302598.000   44.399805980    8.937672692   106.6496   6  16   0.3896   0.3009   0.7675   0.0706   0.1878   0.2334   0.00    0.0
2343 302599.000   44.399805956    8.937672695   106.6479   6  16   0.3879   0.2996   0.7645   0.0702   0.1870   0.2324   0.00    0.0
2343 302600.000   44.399805908    8.937672688   106.6478   6  16   0.3862   0.2983   0.7615   0.0699   0.1862   0.2315   0.00    0.0
2343 302601.000   44.399805874    8.937672660   106.6438   6  16   0.3845   0.2970   0.7586   0.0696   0.1854   0.2305   0.00    0.0
2343 302602.000   44.399805830    8.937672648   106.6431   6  16   0.3828   0.2957   0.7557   0.0692   0.1846   0.2296   0.00    0.0
2343 302603.000   44.399805795    8.937672642   106.6445   6  16   0.3812   0.2945   0.7528   0.0689   0.1838   0.2287   0.00    0.0
2343 302604.000   44.399805760    8.937672649   106.6421   6  16   0.3796   0.2933   0.7500   0.0686   0.1831   0.2278   0.00    0.0
2343 302605.000   44.399805727    8.937672650   106.6411   6  16   0.3780   0.2920   0.7472   0.0683   0.1823   0.2269   0.00    0.0
2343 302606.000   44.399805715    8.937672652   106.6362   6  16   0.3765   0.2908   0.7444   0.0680   0.1816   0.2260   0.00    0.0
2343 302607.000   44.399805677    8.937672653   106.6313   6  16   0.3749   0.2896   0.7417   0.0677   0.1808   0.2251   0.00    0.0
2343 302608.000   44.399805651    8.937672648   106.6266   6  16   0.3734   0.2885   0.7390   0.0674   0.1801   0.2242   0.00    0.0
2343 302609.000   44.399805632    8.937672632   106.6240   6  16   0.3719   0.2873   0.7364   0.0671   0.1794   0.2234   0.00    0.0
2343 302610.000   44.399805618    8.937672626   106.6165   6  16   0.3704   0.2862   0.7337   0.0668   0.1787   0.2225   0.00    0.0
2343 302611.000   44.399805604    8.937672616   106.6104   6  16   0.3689   0.2850   0.7311   0.0665   0.1780   0.2217   0.00    0.0
2343 302612.000   44.399805619    8.937672579   106.6026   6  16   0.3674   0.2839   0.7286   0.0662   0.1773   0.2209   0.00    0.0
2343 302613.000   44.399805619    8.937672553   106.5932   6  16   0.3660   0.2828   0.7261   0.0659   0.1766   0.2201   0.00    0.0
2343 302614.000   44.399805616    8.937672514   106.5871   6  16   0.3646   0.2817   0.7236   0.0656   0.1759   0.2193   0.00    0.0
2343 302615.000   44.399805597    8.937672480   106.5845   6  16   0.3632   0.2806   0.7211   0.0653   0.1753   0.2185   0.00    0.0
2343 302616.000   44.399805580    8.937672445   106.5817   6  16   0.3618   0.2795   0.7187   0.0651   0.1746   0.2177   0.00    0.0
2343 302617.000   44.399805560    8.937672410   106.5771   6  16   0.3604   0.2785   0.7162   0.0648   0.1740   0.2169   0.00    0.0
2343 302618.000   44.399805535    8.937672371   106.5725   6  16   0.3590   0.2774   0.7139   0.0645   0.1733   0.2161   0.00    0.0
2343 302619.000   44.399805521    8.937672329   106.5621   6  16   0.3577   0.2764   0.7115   0.0643   0.1727   0.2154   0.00    0.0
2343 302620.000   44.399805499    8.937672296   106.5547   6  16   0.3563   0.2754   0.7092   0.0640   0.1720   0.2146   0.00    0.0
2343 302621.000   44.399805485    8.937672246   106.5448   6  16   0.3550   0.2744   0.7069   0.0637   0.1714   0.2139   0.00    0.0
2343 302622.000   44.399805466    8.937672177   106.5344   6  16   0.3537   0.2734   0.7046   0.0635   0.1708   0.2132   0.00    0.0
2343 302623.000   44.399805442    8.937672128   106.5267   6  16   0.3524   0.2724   0.7024   0.0632   0.1702   0.2124   0.00    0.0
2343 302624.000   44.399805436    8.937672063   106.5184   6  16   0.3512   0.2714   0.7001   0.0630   0.1696   0.2117   0.00    0.0
2343 302625.000   44.399805430    8.937672015   106.5113   6  16   0.3499   0.2704   0.6979   0.0627   0.1690   0.2110   0.00    0.0
2343 302626.000   44.399805425    8.937671962   106.5025   6  16   0.3487   0.2695   0.6958   0.0625   0.1684   0.2103   0.00    0.0
2343 302627.000   44.399805412    8.937671923   106.4944   6  16   0.3474   0.2685   0.6936   0.0622   0.1678   0.2096   0.00    0.0
2343 302628.000   44.399805395    8.937671886   106.4902   6  16   0.3462   0.2676   0.6915   0.0620   0.1672   0.2089   0.00    0.0
2343 302629.000   44.399805377    8.937671858   106.4864   6  16   0.3450   0.2667   0.6894   0.0617   0.1667   0.2082   0.00    0.0
2343 302630.000   44.399805348    8.937671843   106.4816   6  16   0.3438   0.2657   0.6873   0.0615   0.1661   0.2076   0.00    0.0
2343 302631.000   44.399805331    8.937671836   106.4752   6  16   0.3426   0.2648   0.6852   0.0612   0.1655   0.2069   0.00    0.0
2343 302632.000   44.399805315    8.937671816   106.4657   6  16   0.3415   0.2639   0.6832   0.0610   0.1650   0.2062   0.00    0.0
2343 302633.000   44.399805302    8.937671775   106.4567   6  16   0.3403   0.2631   0.6812   0.0608   0.1644   0.2056   0.00    0.0
2343 302634.000   44.399805296    8.937671748   106.4482   6  16   0.3391   0.2622   0.6792   0.0606   0.1639   0.2049   0.00    0.0
2343 302635.000   44.399805277    8.937671712   106.4421   6  16   0.3380   0.2613   0.6772   0.0603   0.1633   0.2043   0.00    0.0
2343 302636.000   44.399805274    8.937671668   106.4347   6  16   0.3369   0.2604   0.6753   0.0601   0.1628   0.2037   0.00    0.0
2343 302637.000   44.399805273    8.937671637   106.4299   6  16   0.3358   0.2596   0.6733   0.0599   0.1623   0.2030   0.00    0.0
2343 302638.000   44.399805269    8.937671599   106.4246   6  16   0.3347   0.2587   0.6714   0.0597   0.1617   0.2024   0.00    0.0
2343 302639.000   44.399805259    8.937671571   106.4225   6  16   0.3336   0.2579   0.6695   0.0594   0.1612   0.2018   0.00    0.0
2343 302640.000   44.399805249    8.937671546   106.4199   6  16   0.3325   0.2571   0.6677   0.0592   0.1607   0.2012   0.00    0.0
2343 302641.000   44.399805247    8.937671509   106.4188   6  16   0.3314   0.2562   0.6658   0.0590   0.1602   0.2006   0.00    0.0
2343 302642.000   44.399805245    8.937671483   106.4205   6  16   0.3304   0.2554   0.6640   0.0588   0.1597   0.2000   0.00    0.0
2343 302643.000   44.399805251    8.937671453   106.4213   6  16   0.3293   0.2546   0.6621   0.0586   0.1592   0.1994   0.00    0.0
2343 302644.000   44.399805252    8.937671420   106.4218   6  16   0.3283   0.2538   0.6603   0.0584   0.1587   0.1988   0.00    0.0
2343 302645.000   44.399805251    8.937671402   106.4219   6  16   0.3272   0.2530   0.6586   0.0582   0.1582   0.1983   0.00    0.0
2343 302646.000   44.399805241    8.937671394   106.4204   6  16   0.3262   0.2522   0.6568   0.0580   0.1577   0.1977   0.00    0.0
2343 302647.000   44.399805232    8.937671385   106.4187   6  16   0.3252   0.2515   0.6550   0.0577   0.1572   0.1971   0.00    0.0
2343 302648.000   44.399805219    8.937671378   106.4179   6  16   0.3242   0.2507   0.6533   0.0575   0.1568   0.1965   0.00    0.0
2343 302649.000   44.399805210    8.937671375   106.4150   6  16   0.3232   0.2499   0.6516   0.0573   0.1563   0.1960   0.00    0.0
2343 302650.000   44.399805206    8.937671366   106.4119   6  16   0.3222   0.2492   0.6499   0.0571   0.1558   0.1954   0.00    0.0
2343 302651.000   44.399805194    8.937671355   106.4098   6  16   0.3213   0.2484   0.6482   0.0569   0.1554   0.1949   0.00    0.0
2343 302652.000   44.399805180    8.937671347   106.4088   6  16   0.3203   0.2477   0.6465   0.0568   0.1549   0.1943   0.00    0.0
2343 302653.000   44.399805165    8.937671327   106.4085   6  16   0.3193   0.2470   0.6449   0.0566   0.1544   0.1938   0.00    0.0
2343 302654.000   44.399805151    8.937671304   106.4076   6  16   0.3184   0.2462   0.6432   0.0564   0.1540   0.1933   0.00    0.0
2343 302655.000   44.399805138    8.937671289   106.4087   6  16   0.3174   0.2455   0.6416   0.0562   0.1535   0.1928   0.00    0.0
2343 302656.000   44.399805117    8.937671279   106.4083   6  16   0.3165   0.2448   0.6400   0.0560   0.1531   0.1922   0.00    0.0
2343 302657.000   44.399805101    8.937671272   106.4073   6  16   0.3156   0.2441   0.6384   0.0558   0.1527   0.1917   0.00    0.0
2343 302658.000   44.399805084    8.937671255   106.4079   6  16   0.3147   0.2434   0.6368   0.0556   0.1522   0.1912   0.00    0.0
2343 302659.000   44.399805061    8.937671230   106.4063   6  16   0.3138   0.2427   0.6353   0.0554   0.1518   0.1907   0.00    0.0
2343 302660.000   44.399805046    8.937671218   106.4052   6  16   0.3129   0.2420   0.6337   0.0552   0.1514   0.1902   0.00    0.0
2343 302661.000   44.399805031    8.937671201   106.4046   6  16   0.3120   0.2413   0.6322   0.0551   0.1509   0.1897   0.00    0.0
