%  GPST          latitude(deg) longitude(deg)  height(m)   Q  ns   sdn(m)   sde(m)   sdu(m)  sdne(m)  sdeu(m)  sdun(m) age(s)  ratio
2343 219291.000   44.399809030    8.937668178   108.1281   6  13   3.7425   3.6461   7.6588  -0.9715  -1.1225   0.8986   0.00    0.0
2343 219292.000   44.399808985    8.937667544   108.1357   6  13   2.6572   2.5888   5.4601  -0.6954  -0.7860   0.6288   0.00    0.0
2343 219293.000   44.399809572    8.937666811   108.2196   6  13   2.1725   2.1167   4.4729  -0.5703  -0.6381   0.5103   0.00    0.0
2343 219294.000   44.399810013    8.937666421   108.2320   6  13   1.8828   1.8345   3.8816  -0.4951  -0.5500   0.4397   0.00    0.0
2343 219295.000   44.399809902    8.937666807   108.2301   6  13   1.6847   1.6415   3.4773  -0.4436  -0.4898   0.3915   0.00    0.0
2343 219296.000   44.399809927    8.937668053   108.2156   6  15   1.5367   1.4895   3.1755  -0.4194  -0.4448   0.3528   0.00    0.0
2343 219297.000   44.399809382    8.937669330   108.1834   6  17   1.4059   1.3693   2.9273  -0.4023  -0.3718   0.3227   0.00    0.0
2343 219298.000   44.399808994    8.937670459   108.1833   6  17   1.3046   1.2745   2.7312  -0.3857  -0.3209   0.3012   0.00    0.0
2343 219299.000   44.399808859    8.937671238   108.1697   6  17   1.2226   1.1971   2.5706  -0.3702  -0.2817   0.2835   0.00    0.0
2343 219300.000   44.399808692    8.937671860   108.1061   6  17   1.1544   1.1323   2.4358  -0.3560  -0.2506   0.2683   0.00    0.0
2343 219301.000   44.399808682    8.937672431   108.0894   6  17   1.0965   1.0770   2.3207  -0.3430  -0.2250   0.2551   0.00    0.0
2343 219302.000   44.399808681    8.937672747   108.1217   6  17   1.0465   1.0292   2.2208  -0.3312  -0.2037   0.2435   0.00    0.0
2343 219303.000   44.399808816    8.937672957   108.1254   6  17   1.0028   0.9872   2.1331  -0.3204  -0.1854   0.2331   0.00    0.0
2343 219304.000   44.399808947    8.937673288   108.1392   6  17   0.9641   0.9499   2.0553  -0.3105  -0.1697   0.2237   0.00    0.0
2343 219305.000   44.399809014    8.937673661   108.1573   6  17   0.9296   0.9166   1.9856  -0.3015  -0.1558   0.2153   0.00    0.0
2343 219306.000   44.399809140    8.937673896   108.1707   6  17   0.8986   0.8866   1.9229  -0.2932  -0.1435   0.2075   0.00    0.0
2343 219307.000   44.399809254    8.937674150   108.1762   6  17   0.8705   0.8593   1.8659  -0.2855  -0.1325   0.2005   0.00    0.0
2343 219308.000   44.399809362    8.937674473   108.2067   6  17   0.8448   0.8344   1.8138  -0.2783  -0.1225   0.1939   0.00    0.0
2343 219309.000   44.399809506    8.937674881   108.2187   6  17   0.8214   0.8116   1.7661  -0.2717  -0.1133   0.1879   0.00    0.0
2343 219310.000   44.399809568    8.937675299   108.2219   6  17   0.7997   0.7905   1.7221  -0.2655  -0.1049   0.1822   0.00    0.0
2343 219311.000   44.399809675    8.937675506   108.2538   6  17   0.7797   0.7710   1.6813  -0.2597  -0.0970   0.1770   0.00    0.0
2343 219312.000   44.399809737    8.937675670   108.2763   6  17   0.7611   0.7529   1.6435  -0.2543  -0.0896   0.1720   0.00    0.0
2343 219313.000   44.399809763    8.937675849   108.2947   6  17   0.7438   0.7360   1.6082  -0.2492  -0.0826   0.1674   0.00    0.0
2343 219314.000   44.399809875    8.937675990   108.3100   6  17   0.7276   0.7202   1.5752  -0.2444  -0.0760   0.1630   0.00    0.0
2343 219315.000   44.399809961    8.937676175   108.3045   6  17   0.7125   0.7054   1.5443  -0.2399  -0.0695   0.1589   0.00    0.0
2343 219316.000   44.399810068    8.937676273   108.3019   6  17   0.6982   0.6915   1.5152  -0.2356  -0.0633   0.1550   0.00    0.0
2343 219317.000   44.399810175    8.937676272   108.3073   6  17   0.6848   0.6783   1.4878  -0.2315  -0.0571   0.1513   0.00    0.0
2343 219318.000   44.399810229    8.937676268   108.3072   6  17   0.6721   0.6659   1.4619  -0.2276  -0.0510   0.1477   0.00    0.0
2343 219319.000   44.399810337    8.937676201   108.2997   6  17   0.6601   0.6541   1.4374  -0.2240  -0.0447   0.1444   0.00    0.0
2343 219320.000   44.399810402    8.937676218   108.2649   6  17   0.6487   0.6430   1.4141  -0.2205  -0.0382   0.1411   0.00    0.0
2343 219321.000   44.399810511    8.937676223   108.2281   6  17   0.6379   0.6324   1.3921  -0.2171  -0.0311   0.1381   0.00    0.0
2343 219322.000   44.399810557    8.937676218   108.1971   6  17   0.6276   0.6223   1.3711  -0.2139  -0.0228   0.1351   0.00    0.0
2343 219323.000   44.399810589    8.937676144   108.1528   6  17   0.6178   0.6126   1.3510  -0.2109  -0.0106   0.1323   0.00    0.0
2343 219324.000   44.399810577    8.937676029   108.1215   6  17   0.6084   0.6034   1.3319  -0.2080   0.0161   0.1295   0.00    0.0
2343 219325.000   44.399810561    8.937675954   108.0898   6  17   0.5994   0.5947   1.3137  -0.2052   0.0246   0.1269   0.00    0.0
2343 219326.000   44.399810547    8.937675890   108.0658   6  17   0.5909   0.5862   1.2962  -0.2025   0.0303   0.1244   0.00    0.0
2343 219327.000   44.399810524    8.937675849   108.0369   6  17   0.5827   0.5782   1.2795  -0.1999   0.0348   0.1219   0.00    0.0
2343 219328.000   44.399810546    8.937675758   108.0186   6  17   0.5748   0.5704   1.2635  -0.1974   0.0384   0.1196   0.00    0.0
2343 219329.000   44.399810583    8.937675697   108.0072   6  17   0.5672   0.5630   1.2481  -0.1950   0.0415   0.1173   0.00    0.0
2343 219330.000   44.399810551    8.937675669   107.9918   6  17   0.5599   0.5558   1.2332  -0.1927   0.0442   0.1151   0.00    0.0
2343 219331.000   44.399810605    8.937675582   107.9829   6  17   0.5529   0.5489   1.2190  -0.1905   0.0466   0.1130   0.00    0.0
2343 219332.000   44.399810625    8.937675527   107.9771   6  17   0.5462   0.5423   1.2053  -0.1883   0.0487   0.1109   0.00    0.0
2343 219333.000   44.399810650    8.937675487   107.9761   6  17   0.5397   0.5359   1.1921  -0.1862   0.0506   0.1089   0.00    0.0
2343 219334.000   44.399810704    8.937675434   107.9822   6  17   0.5334   0.5297   1.1793  -0.1842   0.0523   0.1069   0.00    0.0
2343 219335.000   44.399810748    8.937675423   107.9911   6  17   0.5273   0.5238   1.1670  -0.1823   0.0538   0.1050   0.00    0.0
2343 219336.000   44.399810833    8.937675382   108.0049   6  17   0.5215   0.5180   1.1551  -0.1804   0.0552   0.1031   0.00    0.0
2343 219337.000   44.399810869    8.937675342   108.0134   6  17   0.5158   0.5124   1.1436  -0.1786   0.0565   0.1013   0.00    0.0
2343 219338.000   44.399810898    8.937675284   108.0249   6  17   0.5103   0.5070   1.1324  -0.1768   0.0577   0.0995   0.00    0.0
2343 219339.000   44.399810926    8.937675226   108.0361   6  17   0.5050   0.5018   1.1216  -0.1751   0.0588   0.0978   0.00    0.0
2343 219340.000   44.399810953    8.937675142   108.0457   6  17   0.4998   0.4967   1.1112  -0.1734   0.0598   0.0961   0.00    0.0
2343 219341.000   44.399810953    8.937675106   108.0591   6  17   0.4948   0.4918   1.1011  -0.1718   0.0607   0.0945   0.00    0.0
2343 219342.000   44.399810981    8.937675104   108.0588   6  17   0.4900   0.4870   1.0912  -0.1703   0.0616   0.0929   0.00    0.0
2343 219343.000   44.399810987    8.937675073   108.0640   6  17   0.4853   0.4823   1.0817  -0.1687   0.0624   0.0913   0.00    0.0
2343 219344.000   44.399810993    8.937675064   108.0676   6  17   0.4807   0.4778   1.0724  -0.1672   0.0632   0.0898   0.00    0.0
2343 219345.000   44.399811036    8.937675036   108.0677   6  17   0.4762   0.4734   1.0634  -0.1658   0.0639   0.0882   0.00    0.0
2343 219346.000   44.399811079    8.937674979   108.0695   6  17   0.4719   0.4692   1.0547  -0.1644   0.0646   0.0868   0.00    0.0
2343 219347.000   44.399811088    8.937674948   108.0724   6  17   0.4677   0.4650   1.0462  -0.1630   0.0652   0.0853   0.00    0.0
2343 219348.000   44.399811115    8.937674924   108.0718   6  17   0.4636   0.4610   1.0379  -0.1617   0.0658   0.0839   0.00    0.0
2343 219349.000   44.399811143    8.937674934   108.0701   6  17   0.4596   0.4570   1.0298  -0.1604   0.0663   0.0825   0.00    0.0
2343 219350.000   44.399811177    8.937674957   108.0680   6  17   0.4557   0.4532   1.0220  -0.1591   0.0669   0.0811   0.00    0.0
2343 219351.000   44.399811190    8.937675023   108.0661   6  17   0.4519   0.4494   1.0143  -0.1579   0.0674   0.0797   0.00    0.0
2343 219352.000   44.399811218    8.937675099   108.0648   6  17   0.4482   0.4458   1.0069  -0.1567   0.0678   0.0784   0.00    0.0
2343 219353.000   44.399811252    8.937675175   108.0616   6  17   0.4446   0.4422   0.9996  -0.1555   0.0683   0.0771   0.00    0.0
2343 219354.000   44.399811283    8.937675279   108.0617   6  17   0.4410   0.4387   0.9925  -0.1543   0.0687   0.0758   0.00    0.0
2343 219355.000   44.399811342    8.937675358   108.0638   6  17   0.4376   0.4353   0.9856  -0.1532   0.0691   0.0745   0.00    0.0
2343 219356.000   44.399811371    8.937675435   108.0671   6  17   0.4342   0.4320   0.9788  -0.1521   0.0695   0.0733   0.00    0.0
2343 219357.000   44.399811417    8.937675508   108.0754   6  17   0.4309   0.4288   0.9722  -0.1510   0.0699   0.0720   0.00    0.0
2343 219358.000   44.399811478    8.937675593   108.0812   6  17   0.4277   0.4256   0.9657  -0.1500   0.0702   0.0708   0.00    0.0
2343 219359.000   44.399811547    8.937675677   108.0807   6  17   0.4246   0.4225   0.9594  -0.1489   0.0706   0.0696   0.00    0.0
2343 219360.000   44.399811578    8.937675764   108.0789   6  17   0.4215   0.4194   0.9532  -0.1479   0.0709   0.0684   0.00    0.0
2343 219361.000   44.399811597    8.937675836   108.0779   6  17   0.4185   0.4165   0.9472  -0.1469   0.0712   0.0672   0.00    0.0
2343 219362.000   44.399811636    8.937675908   108.0732   6  17   0.4155   0.4136   0.9413  -0.1460   0.0715   0.0660   0.00    0.0
2343 219363.000   44.399811668    8.937675998   108.0716   6  17   0.4127   0.4107   0.9355  -0.1450   0.0717   0.0649   0.00    0.0
2343 219364.000   44.399811739    8.937676039   108.0706   6  17   0.4098   0.4079   0.9299  -0.1441   0.0720   0.0637   0.00    0.0
2343 219365.000   44.399811808    8.937676091   108.0683   6  17   0.4071   0.4052   0.9243  -0.1432   0.0722   0.0626   0.00    0.0
2343 219366.000   44.399811869    8.937676141   108.0645   6  17   0.4043   0.4025   0.9189  -0.1423   0.0725   0.0615   0.00    0.0
2343 219367.000   44.399811927    8.937676209   108.0618   6  17   0.4017   0.3999   0.9136  -0.1414   0.0727   0.0604   0.00    0.0
2343 219368.000   44.399811955    8.937676264   108.0506   6  17   0.3991   0.3973   0.9084  -0.1406   0.0729   0.0593   0.00    0.0
2343 219369.000   44.399811957    8.937676272   108.0452   6  17   0.3965   0.3948   0.9033  -0.1397   0.0732   0.0582   0.00    0.0
2343 219370.000   44.399811986    8.937676295   108.0385   6  17   0.3940   0.3923   0.8983  -0.1389   0.0734   0.0571   0.00    0.0
2343 219371.000   44.399812028    8.937676305   108.0325   6  17   0.3915   0.3899   0.8934  -0.1381   0.0736   0.0560   0.00    0.0
2343 219372.000   44.399812050    8.937676323   108.0297   6  17   0.3891   0.3875   0.8885  -0.1373   0.0738   0.0549   0.00    0.0
2343 219373.000   44.399812075    8.937676326   108.0216   6  17   0.3867   0.3851   0.8838  -0.1365   0.0739   0.0539   0.00    0.0
2343 219374.000   44.399812089    8.937676341   108.0133   6  17   0.3844   0.3828   0.8792  -0.1357   0.0741   0.0528   0.00    0.0
2343 219375.000   44.399812100    8.937676372   108.0065   6  17   0.3821   0.3806   0.8746  -0.1350   0.0743   0.0517   0.00    0.0
2343 219376.000   44.399812112    8.937676328   108.0075   6  18   0.3799   0.3782   0.8700  -0.1341   0.0754   0.0502   0.00    0.0
2343 219377.000   44.399812111    8.937676307   108.0094   6  18   0.3776   0.3759   0.8655  -0.1333   0.0764   0.0486   0.00    0.0
2343 219378.000   44.399812096    8.937676288   108.0094   6  18   0.3754   0.3737   0.8611  -0.1325   0.0773   0.0471   0.00    0.0
2343 219379.000   44.399812091    8.937676281   108.0126   6  18   0.3733   0.3715   0.8567  -0.1317   0.0782   0.0456   0.00    0.0
2343 219380.000   44.399812076    8.937676285   108.0175   6  18   0.3712   0.3693   0.8525  -0.1309   0.0790   0.0440   0.00    0.0
2343 219381.000   44.399812063    8.937676278   108.0229   6  18   0.3691   0.3672   0.8483  -0.1301   0.0798   0.0425   0.00    0.0
2343 219382.000   44.399812076    8.937676252   108.0286   6  18   0.3671   0.3651   0.8441  -0.1293   0.0806   0.0409   0.00    0.0
2343 219383.000   44.399812077    8.937676217   108.0348   6  18   0.3651   0.3631   0.8401  -0.1286   0.0812   0.0394   0.00    0.0
2343 219384.000   44.399812096    8.937676170   108.0416   6  18   0.3631   0.3610   0.8361  -0.1279   0.0819   0.0378   0.00    0.0
2343 219385.000   44.399812116    8.937676143   108.0475   6  18   0.3611   0.3591   0.8322  -0.1271   0.0825   0.0362   0.00    0.0
2343 219386.000   44.399812141    8.937676125   108.0537   6  18   0.3592   0.3571   0.8284  -0.1264   0.0831   0.0346   0.00    0.0
2343 219387.000   44.399812165    8.937676096   108.0653   6  18   0.3574   0.3552   0.8246  -0.1257   0.0836   0.0329   0.00    0.0
2343 219388.000   44.399812195    8.937676048   108.0754   6  18   0.3555   0.3533   0.8209  -0.1251   0.0842   0.0312   0.00    0.0
2343 219389.000   44.399812241    8.937675987   108.0849   6  18   0.3537   0.3514   0.8172  -0.1244   0.0846   0.0295   0.00    0.0
2343 219390.000   44.399812286    8.937675932   108.0946   6  18   0.3519   0.3496   0.8136  -0.1237   0.0851   0.0277   0.00    0.0
2343 219391.000   44.399812328    8.937675869   108.1022   6  18   0.3501   0.3478   0.8101  -0.1231   0.0855   0.0258   0.00    0.0
2343 219392.000   44.399812373    8.937675809   108.1102   6  18   0.3484   0.3460   0.8066  -0.1224   0.0860   0.0239   0.00    0.0
2343 219393.000   44.399812416    8.937675758   108.1210   6  18   0.3466   0.3443   0.8032  -0.1218   0.0864   0.0218   0.00    0.0
2343 219394.000   44.399812456    8.937675716   108.1276   6  18   0.3450   0.3426   0.7998  -0.1212   0.0867   0.0196   0.00    0.0
2343 219395.000   44.399812497    8.937675654   108.1388   6  18   0.3433   0.3409   0.7965  -0.1206   0.0871   0.0172   0.00    0.0
2343 219396.000   44.399812549    8.937675568   108.1463   6  18   0.3416   0.3392   0.7933  -0.1200   0.0874   0.0144   0.00    0.0
2343 219397.000   44.399812589    8.937675516   108.1565   6  18   0.3400   0.3375   0.7900  -0.1194   0.0877   0.0111   0.00    0.0
2343 219398.000   44.399812628    8.937675472   108.1652   6  18   0.3384   0.3359   0.7869  -0.1188   0.0880   0.0063   0.00    0.0
2343 219399.000   44.399812664    8.937675418   108.1724   6  18   0.3368   0.3343   0.7838  -0.1183   0.0883  -0.0064   0.00    0.0
2343 219400.000   44.399812704    8.937675378   108.1808   6  18   0.3353   0.3327   0.7807  -0.1177   0.0886  -0.0109   0.00    0.0
2343 219401.000   44.399812732    8.937675339   108.1848   6  18   0.3338   0.3312   0.7777  -0.1171   0.0888  -0.0140   0.00    0.0
2343 219402.000   44.399812751    8.937675338   108.1872   6  18   0.3323   0.3297   0.7747  -0.1166   0.0891  -0.0165   0.00    0.0
2343 219403.000   44.399812779    8.937675347   108.1922   6  18   0.3308   0.3281   0.7717  -0.1161   0.0893  -0.0185   0.00    0.0
2343 219404.000   44.399812802    8.937675360   108.1984   6  18   0.3293   0.3267   0.7688  -0.1155   0.0895  -0.0204   0.00    0.0
2343 219405.000   44.399812839    8.937675418   108.2022   6  18   0.3278   0.3252   0.7660  -0.1150   0.0897  -0.0220   0.00    0.0
2343 219406.000   44.399812870    8.937675467   108.2088   6  18   0.3264   0.3237   0.7631  -0.1145   0.0899  -0.0235   0.00    0.0
2343 219407.000   44.399812890    8.937675511   108.2155   6  18   0.3250   0.3223   0.7604  -0.1140   0.0901  -0.0249   0.00    0.0
2343 219408.000   44.399812926    8.937675567   108.2200   6  18   0.3236   0.3209   0.7576  -0.1135   0.0903  -0.0261   0.00    0.0
2343 219409.000   44.399812958    8.937675637   108.2257   6  18   0.3222   0.3195   0.7549  -0.1130   0.0905  -0.0273   0.00    0.0
2343 219410.000   44.399813014    8.937675697   108.2307   6  18   0.3209   0.3181   0.7522  -0.1125   0.0906  -0.0284   0.00    0.0
2343 219411.000   44.399813059    8.937675758   108.2341   6  18   0.3195   0.3168   0.7496  -0.1120   0.0908  -0.0295   0.00    0.0
2343 219412.000   44.399813110    8.937675797   108.2387   6  18   0.3182   0.3154   0.7470  -0.1116   0.0909  -0.0305   0.00    0.0
2343 219413.000   44.399813162    8.937675846   108.2422   6  18   0.3169   0.3141   0.7445  -0.1111   0.0910  -0.0314   0.00    0.0
2343 219414.000   44.399813217    8.937675892   108.2412   6  18   0.3156   0.3128   0.7419  -0.1106   0.0912  -0.0323   0.00    0.0
2343 219415.000   44.399813271    8.937675924   108.2429   6  18   0.3143   0.3115   0.7394  -0.1102   0.0913  -0.0331   0.00    0.0
2343 219416.000   44.399813330    8.937675965   108.2441   6  18   0.3130   0.3102   0.7370  -0.1097   0.0914  -0.0339   0.00    0.0
2343 219417.000   44.399813391    8.937676009   108.2435   6  18   0.3118   0.3090   0.7345  -0.1093   0.0915  -0.0347   0.00    0.0
2343 219418.000   44.399813459    8.937676034   108.2449   6  18   0.3105   0.3077   0.7321  -0.1088   0.0916  -0.0354   0.00    0.0
2343 219419.000   44.399813527    8.937676056   108.2475   6  18   0.3093   0.3065   0.7297  -0.1084   0.0917  -0.0361   0.00    0.0
2343 219420.000   44.399813594    8.937676070   108.2484   6  18   0.3081   0.3053   0.7274  -0.1080   0.0918  -0.0368   0.00    0.0
2343 219421.000   44.399813659    8.937676080   108.2483   6  18   0.3069   0.3041   0.7251  -0.1076   0.0919  -0.0375   0.00    0.0
2343 219422.000   44.399813718    8.937676099   108.2476   6  18   0.3058   0.3029   0.7228  -0.1071   0.0919  -0.0381   0.00    0.0
2343 219423.000   44.399813776    8.937676112   108.2487   6  18   0.3046   0.3017   0.7205  -0.1067   0.0920  -0.0387   0.00    0.0
2343 219424.000   44.399813840    8.937676100   108.2482   6  18   0.3034   0.3006   0.7183  -0.1063   0.0921  -0.0393   0.00    0.0
2343 219425.000   44.399813902    8.937676082   108.2484   6  18   0.3023   0.2994   0.7161  -0.1059   0.0921  -0.0399   0.00    0.0
2343 219426.000   44.399813960    8.937676069   108.2500   6  18   0.3012   0.2983   0.7139  -0.1055   0.0922  -0.0404   0.00    0.0
2343 219427.000   44.399814030    8.937676070   108.2486   6  18   0.3001   0.2972   0.7118  -0.1051   0.0922  -0.0409   0.00    0.0
2343 219428.000   44.399814094    8.937676071   108.2465   6  18   0.2990   0.2961   0.7096  -0.1048   0.0923  -0.0414   0.00    0.0
2343 219429.000   44.399814153    8.937676087   108.2453   6  18   0.2979   0.2950   0.7075  -0.1044   0.0923  -0.0419   0.00    0.0
2343 219430.000   44.399814203    8.937676103   108.2442   6  18   0.2968   0.2939   0.7055  -0.1040   0.0924  -0.0424   0.00    0.0
2343 219431.000   44.399814246    8.937676106   108.2457   6  18   0.2957   0.2928   0.7034  -0.1036   0.0924  -0.0429   0.00    0.0
2343 219432.000   44.399814295    8.937676100   108.2496   6  18   0.2947   0.2918   0.7014  -0.1033   0.0924  -0.0433   0.00    0.0
2343 219433.000   44.399814326    8.937676108   108.2524   6  18   0.2936   0.2907   0.6994  -0.1029   0.0925  -0.0438   0.00    0.0
2343 219434.000   44.399814358    8.937676114   108.2583   6  18   0.2926   0.2897   0.6974  -0.1025   0.0925  -0.0442   0.00    0.0
2343 219435.000   44.399814387    8.937676113   108.2643   6  18   0.2916   0.2887   0.6954  -0.1022   0.0925  -0.0446   0.00    0.0
2343 219436.000   44.399814421    8.937676113   108.2692   6  18   0.2906   0.2877   0.6935  -0.1018   0.0925  -0.0450   0.00    0.0
2343 219437.000   44.399814461    8.937676101   108.2737   6  18   0.2896   0.2867   0.6916  -0.1015   0.0926  -0.0454   0.00    0.0
2343 219438.000   44.399814483    8.937676081   108.2785   6  18   0.2886   0.2857   0.6897  -0.1011   0.0926  -0.0458   0.00    0.0
2343 219439.000   44.399814505    8.937676054   108.2830   6  18   0.2876   0.2847   0.6878  -0.1008   0.0926  -0.0462   0.00    0.0
2343 219440.000   44.399814530    8.937676020   108.2887   6  18   0.2866   0.2837   0.6859  -0.1004   0.0926  -0.0465   0.00    0.0
2343 219441.000   44.399814561    8.937675973   108.2949   6  18   0.2857   0.2828   0.6841  -0.1001   0.0926  -0.0469   0.00    0.0
2343 219442.000   44.399814590    8.937675941   108.3007   6  18   0.2847   0.2818   0.6823  -0.0998   0.0926  -0.0472   0.00    0.0
2343 219443.000   44.399814613    8.937675899   108.3089   6  18   0.2838   0.2809   0.6805  -0.0994   0.0926  -0.0476   0.00    0.0
2343 219444.000   44.399814629    8.937675842   108.3151   6  18   0.2828   0.2799   0.6787  -0.0991   0.0926  -0.0479   0.00    0.0
2343 219445.000   44.399814651    8.937675792   108.3193   6  18   0.2819   0.2790   0.6769  -0.0988   0.0926  -0.0482   0.00    0.0
2343 219446.000   44.399814667    8.937675741   108.3233   6  18   0.2810   0.2781   0.6752  -0.0985   0.0926  -0.0485   0.00    0.0
2343 219447.000   44.399814698    8.937675689   108.3273   6  18   0.2801   0.2772   0.6734  -0.0982   0.0926  -0.0488   0.00    0.0
2343 219448.000   44.399814722    8.937675637   108.3316   6  18   0.2792   0.2763   0.6717  -0.0979   0.0926  -0.0491   0.00    0.0
2343 219449.000   44.399814750    8.937675590   108.3380   6  18   0.2783   0.2754   0.6700  -0.0976   0.0926  -0.0494   0.00    0.0
2343 219450.000   44.399814785    8.937675524   108.3455   6  18   0.2774   0.2745   0.6684  -0.0973   0.0926  -0.0497   0.00    0.0
2343 219451.000   44.399814823    8.937675464   108.3510   6  18   0.2766   0.2737   0.6667  -0.0969   0.0926  -0.0500   0.00    0.0
2343 219452.000   44.399814864    8.937675408   108.3567   6  18   0.2757   0.2728   0.6651  -0.0967   0.0926  -0.0502   0.00    0.0
2343 219453.000   44.399814893    8.937675347   108.3615   6  18   0.2749   0.2719   0.6634  -0.0964   0.0926  -0.0505   0.00    0.0
2343 219454.000   44.399814916    8.937675289   108.3665   6  18   0.2740   0.2711   0.6618  -0.0961   0.0925  -0.0508   0.00    0.0
2343 219455.000   44.399814944    8.937675232   108.3736   6  18   0.2732   0.2703   0.6602  -0.0958   0.0925  -0.0510   0.00    0.0
2343 219456.000   44.399814967    8.937675180   108.3776   6  18   0.2723   0.2694   0.6587  -0.0955   0.0925  -0.0513   0.00    0.0
2343 219457.000   44.399814994    8.937675135   108.3814   6  18   0.2715   0.2686   0.6571  -0.0952   0.0925  -0.0515   0.00    0.0
2343 219458.000   44.399815020    8.937675087   108.3883   6  18   0.2707   0.2678   0.6555  -0.0949   0.0925  -0.0517   0.00    0.0
2343 219459.000   44.399815048    8.937675046   108.3950   6  18   0.2699   0.2670   0.6540  -0.0946   0.0924  -0.0520   0.00    0.0
2343 219460.000   44.399815063    8.937675011   108.4034   6  18   0.2691   0.2662   0.6525  -0.0944   0.0924  -0.0522   0.00    0.0
2343 219461.000   44.399815085    8.937674976   108.4125   6  18   0.2683   0.2654   0.6510  -0.0941   0.0924  -0.0524   0.00    0.0
2343 219462.000   44.399815090    8.937674948   108.4193   6  18   0.2675   0.2646   0.6495  -0.0938   0.0924  -0.0526   0.00    0.0
2343 219463.000   44.399815106    8.937674910   108.4270   6  18   0.2667   0.2638   0.6480  -0.0936   0.0923  -0.0529   0.00    0.0
2343 219464.000   44.399815112    8.937674880   108.4340   6  18   0.2659   0.2630   0.6465  -0.0933   0.0923  -0.0531   0.00    0.0
2343 219465.000   44.399815116    8.937674859   108.4423   6  18   0.2652   0.2623   0.6451  -0.0930   0.0923  -0.0533   0.00    0.0
2343 219466.000   44.399815118    8.937674838   108.4514   6  18   0.2644   0.2615   0.6437  -0.0928   0.0923  -0.0535   0.00    0.0
2343 219467.000   44.399815125    8.937674820   108.4575   6  18   0.2637   0.2608   0.6422  -0.0925   0.0922  -0.0537   0.00    0.0
2343 219468.000   44.399815137    8.937674798   108.4629   6  18   0.2629   0.2600   0.6408  -0.0922   0.0922  -0.0539   0.00    0.0
2343 219469.000   44.399815141    8.937674796   108.4678   6  18   0.2622   0.2593   0.6394  -0.0920   0.0922  -0.0541   0.00    0.0
2343 219470.000   44.399815157    8.937674793   108.4742   6  18   0.2614   0.2585   0.6380  -0.0917   0.0921  -0.0543   0.00    0.0
2343 219471.000   44.399815161    8.937674791   108.4783   6  18   0.2607   0.2578   0.6367  -0.0915   0.0921  -0.0544   0.00    0.0
2343 219472.000   44.399815171    8.937674789   108.4827   6  18   0.2600   0.2571   0.6353  -0.0912   0.0921  -0.0546   0.00    0.0
2343 219473.000   44.399815189    8.937674792   108.4882   6  18   0.2593   0.2564   0.6339  -0.0910   0.0920  -0.0548   0.00    0.0
2343 219474.000   44.399815211    8.937674789   108.4932   6  18   0.2585   0.2557   0.6326  -0.0908   0.0920  -0.0550   0.00    0.0
2343 219475.000   44.399815245    8.937674795   108.4969   6  18   0.2578   0.2550   0.6313  -0.0905   0.0920  -0.0551   0.00    0.0
2343 219476.000   44.399815275    8.937674800   108.5008   6  18   0.2571   0.2543   0.6300  -0.0903   0.0919  -0.0553   0.00    0.0
2343 219477.000   44.399815308    8.937674806   108.5042   6  18   0.2564   0.2536   0.6287  -0.0900   0.0919  -0.0555   0.00    0.0
2343 219478.000   44.399815356    8.937674815   108.5052   6  18   0.2558   0.2529   0.6274  -0.0898   0.0918  -0.0556   0.00    0.0
2343 219479.000   44.399815403    8.937674820   108.5099   6  18   0.2551   0.2522   0.6261  -0.0896   0.0918  -0.0558   0.00    0.0
2343 219480.000   44.399815450    8.937674836   108.5150   6  18   0.2544   0.2515   0.6248  -0.0893   0.0918  -0.0559   0.00    0.0
2343 219481.000   44.399815493    8.937674839   108.5189   6  18   0.2537   0.2509   0.6236  -0.0891   0.0917  -0.0561   0.00    0.0
2343 219482.000   44.399815533    8.937674844   108.5222   6  18   0.2531   0.2502   0.6223  -0.0889   0.0917  -0.0563   0.00    0.0
2343 219483.000   44.399815578    8.937674843   108.5266   6  18   0.2524   0.2496   0.6211  -0.0887   0.0917  -0.0564   0.00    0.0
2343 219484.000   44.399815629    8.937674839   108.5319   6  18   0.2517   0.2489   0.6198  -0.0884   0.0916  -0.0565   0.00    0.0
2343 219485.000   44.399815672    8.937674845   108.5362   6  18   0.2511   0.2483   0.6186  -0.0882   0.0916  -0.0567   0.00    0.0
2343 219486.000   44.399815706    8.937674859   108.5419   6  18   0.2504   0.2476   0.6174  -0.0880   0.0915  -0.0568   0.00    0.0
2343 219487.000   44.399815743    8.937674869   108.5489   6  18   0.2498   0.2470   0.6162  -0.0878   0.0915  -0.0570   0.00    0.0
2343 219488.000   44.399815775    8.937674881   108.5534   6  18   0.2492   0.2463   0.6150  -0.0876   0.0914  -0.0571   0.00    0.0
2343 219489.000   44.399815800    8.937674891   108.5567   6  18   0.2485   0.2457   0.6138  -0.0873   0.0914  -0.0572   0.00    0.0
2343 219490.000   44.399815826    8.937674890   108.5596   6  18   0.2479   0.2451   0.6127  -0.0871   0.0914  -0.0574   0.00    0.0
2343 219491.000   44.399815849    8.937674895   108.5625   6  18   0.2473   0.2445   0.6115  -0.0869   0.0913  -0.0575   0.00    0.0
2343 219492.000   44.399815863    8.937674899   108.5640   6  18   0.2466   0.2439   0.6104  -0.0867   0.0913  -0.0576   0.00    0.0
2343 219493.000   44.399815872    8.937674902   108.5673   6  18   0.2460   0.2432   0.6092  -0.0865   0.0912  -0.0578   0.00    0.0
2343 219494.000   44.399815886    8.937674900   108.5685   6  18   0.2454   0.2426   0.6081  -0.0863   0.0912  -0.0579   0.00    0.0
2343 219495.000   44.399815897    8.937674896   108.5704   6  18   0.2448   0.2420   0.6069  -0.0861   0.0911  -0.0580   0.00    0.0
2343 219496.000   44.399815909    8.937674888   108.5724   6  18   0.2442   0.2414   0.6058  -0.0859   0.0911  -0.0581   0.00    0.0
2343 219497.000   44.399815909    8.937674881   108.5773   6  18   0.2436   0.2409   0.6047  -0.0857   0.0910  -0.0582   0.00    0.0
2343 219498.000   44.399815912    8.937674879   108.5806   6  18   0.2430   0.2403   0.6036  -0.0855   0.0910  -0.0584   0.00    0.0
2343 219499.000   44.399815920    8.937674879   108.5850   6  18   0.2424   0.2397   0.6025  -0.0853   0.0910  -0.0585   0.00    0.0
2343 219500.000   44.399815931    8.937674878   108.5901   6  18   0.2419   0.2391   0.6014  -0.0851   0.0909  -0.0586   0.00    0.0
2343 219501.000   44.399815937    8.937674882   108.5955   6  18   0.2413   0.2385   0.6004  -0.0849   0.0909  -0.0587   0.00    0.0
2343 219502.000   44.399815946    8.937674887   108.5993   6  18   0.2407   0.2380   0.5993  -0.0847   0.0908  -0.0588   0.00    0.0
2343 219503.000   44.399815957    8.937674872   108.6038   6  18   0.2401   0.2374   0.5982  -0.0845   0.0908  -0.0589   0.00    0.0
2343 219504.000   44.399815968    8.937674860   108.6083   6  18   0.2396   0.2368   0.5972  -0.0843   0.0907  -0.0590   0.00    0.0
2343 219505.000   44.399815981    8.937674849   108.6126   6  18   0.2390   0.2363   0.5961  -0.0841   0.0907  -0.0591   0.00    0.0
2343 219506.000   44.399815992    8.937674824   108.6168   6  18   0.2385   0.2357   0.5951  -0.0839   0.0906  -0.0592   0.00    0.0
2343 219507.000   44.399816001    8.937674805   108.6210   6  18   0.2379   0.2352   0.5941  -0.0838   0.0906  -0.0593   0.00    0.0
2343 219508.000   44.399816009    8.937674786   108.6255   6  18   0.2373   0.2346   0.5931  -0.0836   0.0905  -0.0594   0.00    0.0
2343 219509.000   44.399816026    8.937674755   108.6330   6  18   0.2368   0.2341   0.5921  -0.0834   0.0905  -0.0595   0.00    0.0
2343 219510.000   44.399816039    8.937674715   108.6372   6  18   0.2363   0.2335   0.5910  -0.0832   0.0904  -0.0596   0.00    0.0
2343 219511.000   44.399816050    8.937674674   108.6413   6  18   0.2357   0.2330   0.5900  -0.0830   0.0904  -0.0597   0.00    0.0
2343 219512.000   44.399816071    8.937674625   108.6447   6  18   0.2352   0.2325   0.5891  -0.0828   0.0903  -0.0598   0.00    0.0
2343 219513.000   44.399816088    8.937674572   108.6509   6  18   0.2346   0.2320   0.5881  -0.0827   0.0903  -0.0599   0.00    0.0
2343 219514.000   44.399816105    8.937674525   108.6568   6  18   0.2341   0.2314   0.5871  -0.0825   0.0902  -0.0600   0.00    0.0
2343 219515.000   44.399816109    8.937674478   108.6620   6  18   0.2336   0.2309   0.5861  -0.0823   0.0902  -0.0601   0.00    0.0
2343 219516.000   44.399816113    8.937674435   108.6653   6  18   0.2331   0.2304   0.5852  -0.0821   0.0902  -0.0602   0.00    0.0
2343 219517.000   44.399816121    8.937674375   108.6709   6  18   0.2325   0.2299   0.5842  -0.0820   0.0901  -0.0602   0.00    0.0
2343 219518.000   44.399816128    8.937674322   108.6763   6  18   0.2320   0.2294   0.5832  -0.0818   0.0901  -0.0603   0.00    0.0
2343 219519.000   44.399816131    8.937674279   108.6793   6  18   0.2315   0.2289   0.5823  -0.0816   0.0900  -0.0604   0.00    0.0
2343 219520.000   44.399816131    8.937674240   108.6876   6  18   0.2310   0.2284   0.5814  -0.0814   0.0900  -0.0605   0.00    0.0
2343 219521.000   44.399816128    8.937674204   108.6940   6  18   0.2305   0.2279   0.5804  -0.0813   0.0899  -0.0606   0.00    0.0
2343 219522.000   44.399816126    8.937674161   108.6982   6  18   0.2300   0.2274   0.5795  -0.0811   0.0899  -0.0607   0.00    0.0
2343 219523.000   44.399816121    8.937674122   108.7027   6  18   0.2295   0.2269   0.5786  -0.0809   0.0898  -0.0607   0.00    0.0
2343 219524.000   44.399816115    8.937674085   108.7090   6  18   0.2290   0.2264   0.5777  -0.0808   0.0898  -0.0608   0.00    0.0
2343 219525.000   44.399816103    8.937674056   108.7160   6  18   0.2285   0.2259   0.5768  -0.0806   0.0897  -0.0609   0.00    0.0
2343 219526.000   44.399816101    8.937674021   108.7231   6  18   0.2280   0.2254   0.5759  -0.0804   0.0897  -0.0610   0.00    0.0
2343 219527.000   44.399816099    8.937673991   108.7291   6  18   0.2275   0.2249   0.5750  -0.0803   0.0896  -0.0611   0.00    0.0
2343 219528.000   44.399816092    8.937673966   108.7342   6  18   0.2271   0.2245   0.5741  -0.0801   0.0896  -0.0611   0.00    0.0
2343 219529.000   44.399816084    8.937673945   108.7401   6  18   0.2266   0.2240   0.5732  -0.0800   0.0895  -0.0612   0.00    0.0
2343 219530.000   44.399816078    8.937673923   108.7462   6  18   0.2261   0.2235   0.5723  -0.0798   0.0895  -0.0613   0.00    0.0
2343 219531.000   44.399816077    8.937673902   108.7536   6  18   0.2256   0.2230   0.5715  -0.0796   0.0894  -0.0613   0.00    0.0
2343 219532.000   44.399816082    8.937673881   108.7596   6  18   0.2252   0.2226   0.5706  -0.0795   0.0894  -0.0614   0.00    0.0
2343 219533.000   44.399816089    8.937673853   108.7660   6  18   0.2247   0.2221   0.5697  -0.0793   0.0893  -0.0615   0.00    0.0
2343 219534.000   44.399816100    8.937673829   108.7727   6  18   0.2242   0.2217   0.5689  -0.0792   0.0893  -0.0616   0.00    0.0
2343 219535.000   44.399816113    8.937673808   108.7807   6  18   0.2238   0.2212   0.5680  -0.0790   0.0892  -0.0616   0.00    0.0
2343 219536.000   44.399816119    8.937673795   108.7850   6  18   0.2233   0.2207   0.5672  -0.0789   0.0892  -0.0617   0.00    0.0
2343 219537.000   44.399816126    8.937673777   108.7888   6  18   0.2229   0.2203   0.5664  -0.0787   0.0891  -0.0618   0.00    0.0
2343 219538.000   44.399816131    8.937673759   108.7956   6  18   0.2224   0.2198   0.5655  -0.0786   0.0891  -0.0618   0.00    0.0
2343 219539.000   44.399816145    8.937673742   108.8023   6  18   0.2219   0.2194   0.5647  -0.0784   0.0890  -0.0619   0.00    0.0
2343 219540.000   44.399816160    8.937673737   108.8067   6  18   0.2215   0.2190   0.5639  -0.0783   0.0890  -0.0619   0.00    0.0
2343 219541.000   44.399816179    8.937673723   108.8118   6  18   0.2211   0.2185   0.5631  -0.0781   0.0889  -0.0620   0.00    0.0
2343 219542.000   44.399816204    8.937673709   108.8184   6  18   0.2206   0.2181   0.5622  -0.0780   0.0889  -0.0621   0.00    0.0
2343 219543.000   44.399816224    8.937673697   108.8240   6  18   0.2202   0.2176   0.5614  -0.0778   0.0888  -0.0621   0.00    0.0
2343 219544.000   44.399816239    8.937673688   108.8277   6  18   0.2197   0.2172   0.5606  -0.0777   0.0888  -0.0622   0.00    0.0
2343 219545.000   44.399816248    8.937673685   108.8323   6  18   0.2193   0.2168   0.5598  -0.0775   0.0887  -0.0623   0.00    0.0
2343 219546.000   44.399816256    8.937673688   108.8365   6  18   0.2189   0.2164   0.5591  -0.0774   0.0887  -0.0623   0.00    0.0
2343 219547.000   44.399816260    8.937673690   108.8391   6  18   0.2184   0.2159   0.5583  -0.0772   0.0886  -0.0624   0.00    0.0
2343 219548.000   44.399816264    8.937673694   108.8413   6  18   0.2180   0.2155   0.5575  -0.0771   0.0886  -0.0624   0.00    0.0
2343 219549.000   44.399816264    8.937673698   108.8435   6  18   0.2176   0.2151   0.5567  -0.0770   0.0885  -0.0625   0.00    0.0
2343 219550.000   44.399816263    8.937673704   108.8464   6  18   0.2172   0.2147   0.5559  -0.0768   0.0885  -0.0625   0.00    0.0
2343 219551.000   44.399816267    8.937673696   108.8508   6  18   0.2167   0.2143   0.5552  -0.0767   0.0884  -0.0626   0.00    0.0
2343 219552.000   44.399816270    8.937673688   108.8532   6  18   0.2163   0.2138   0.5544  -0.0765   0.0884  -0.0626   0.00    0.0
2343 219553.000   44.399816266    8.937673698   108.8544   6  18   0.2159   0.2134   0.5536  -0.0764   0.0883  -0.0627   0.00    0.0
2343 219554.000   44.399816258    8.937673706   108.8567   6  18   0.2155   0.2130   0.5529  -0.0763   0.0883  -0.0628   0.00    0.0
2343 219555.000   44.399816252    8.937673706   108.8595   6  18   0.2151   0.2126   0.5521  -0.0761   0.0882  -0.0628   0.00    0.0
2343 219556.000   44.399816244    8.937673715   108.8616   6  18   0.2147   0.2122   0.5514  -0.0760   0.0882  -0.0629   0.00    0.0
2343 219557.000   44.399816242    8.937673719   108.8632   6  18   0.2143   0.2118   0.5507  -0.0759   0.0881  -0.0629   0.00    0.0
2343 219558.000   44.399816237    8.937673730   108.8663   6  18   0.2139   0.2114   0.5499  -0.0757   0.0881  -0.0630   0.00    0.0
2343 219559.000   44.399816237    8.937673739   108.8696   6  18   0.2135   0.2110   0.5492  -0.0756   0.0880  -0.0630   0.00    0.0
2343 219560.000   44.399816238    8.937673745   108.8733   6  18   0.2131   0.2106   0.5485  -0.0755   0.0880  -0.0631   0.00    0.0
2343 219561.000   44.399816240    8.937673759   108.8777   6  18   0.2127   0.2102   0.5477  -0.0753   0.0880  -0.0631   0.00    0.0
2343 219562.000   44.399816240    8.937673768   108.8807   6  18   0.2123   0.2098   0.5470  -0.0752   0.0879  -0.0631   0.00    0.0
2343 219563.000   44.399816238    8.937673769   108.8819   6  18   0.2119   0.2095   0.5463  -0.0751   0.0879  -0.0632   0.00    0.0
2343 219564.000   44.399816235    8.937673774   108.8834   6  18   0.2115   0.2091   0.5456  -0.0749   0.0878  -0.0632   0.00    0.0
2343 219565.000   44.399816232    8.937673781   108.8849   6  18   0.2111   0.2087   0.5449  -0.0748   0.0878  -0.0633   0.00    0.0
2343 219566.000   44.399816232    8.937673780   108.8876   6  18   0.2107   0.2083   0.5442  -0.0747   0.0877  -0.0633   0.00    0.0
2343 219567.000   44.399816228    8.937673779   108.8900   6  18   0.2103   0.2079   0.5435  -0.0746   0.0877  -0.0634   0.00    0.0
2343 219568.000   44.399816226    8.937673781   108.8925   6  18   0.2099   0.2076   0.5428  -0.0744   0.0876  -0.0634   0.00    0.0
2343 219569.000   44.399816217    8.937673784   108.8941   6  18   0.2096   0.2072   0.5421  -0.0743   0.0876  -0.0635   0.00    0.0
2343 219570.000   44.399816211    8.937673785   108.8969   6  18   0.2092   0.2068   0.5414  -0.0742   0.0875  -0.0635   0.00    0.0
2343 219571.000   44.399816205    8.937673791   108.8977   6  18   0.2088   0.2064   0.5407  -0.0741   0.0875  -0.0635   0.00    0.0
2343 219572.000   44.399816195    8.937673791   108.8977   6  18   0.2084   0.2061   0.5400  -0.0739   0.0874  -0.0636   0.00    0.0
2343 219573.000   44.399816181    8.937673794   108.8976   6  18   0.2081   0.2057   0.5394  -0.0738   0.0874  -0.0636   0.00    0.0
2343 219574.000   44.399816167    8.937673793   108.8976   6  18   0.2077   0.2053   0.5387  -0.0737   0.0873  -0.0637   0.00    0.0
2343 219575.000   44.399816143    8.937673796   108.8979   6  18   0.2073   0.2050   0.5380  -0.0736   0.0873  -0.0637   0.00    0.0
2343 219576.000   44.399816127    8.937673797   108.8976   6  18   0.2070   0.2046   0.5374  -0.0734   0.0872  -0.0638   0.00    0.0
2343 219577.000   44.399816118    8.937673810   108.8984   6  18   0.2066   0.2043   0.5367  -0.0733   0.0872  -0.0638   0.00    0.0
2343 219578.000   44.399816106    8.937673819   108.8981   6  18   0.2062   0.2039   0.5360  -0.0732   0.0871  -0.0638   0.00    0.0
2343 219579.000   44.399816094    8.937673821   108.8988   6  18   0.2059   0.2035   0.5354  -0.0731   0.0871  -0.0639   0.00    0.0
2343 219580.000   44.399816080    8.937673828   108.8994   6  18   0.2055   0.2032   0.5347  -0.0730   0.0870  -0.0639   0.00    0.0
2343 219581.000   44.399816065    8.937673829   108.9012   6  18   0.2052   0.2028   0.5341  -0.0728   0.0870  -0.0639   0.00    0.0
2343 219582.000   44.399816047    8.937673847   108.9018   6  18   0.2048   0.2025   0.5334  -0.0727   0.0870  -0.0640   0.00    0.0
2343 219583.000   44.399816026    8.937673857   108.9027   6  18   0.2045   0.2021   0.5328  -0.0726   0.0869  -0.0640   0.00    0.0
2343 219584.000   44.399816002    8.937673873   108.9037   6  18   0.2041   0.2018   0.5322  -0.0725   0.0869  -0.0641   0.00    0.0
2343 219585.000   44.399815978    8.937673882   108.9031   6  18   0.2037   0.2015   0.5315  -0.0724   0.0868  -0.0641   0.00    0.0
2343 219586.000   44.399815951    8.937673892   108.9038   6  18   0.2034   0.2011   0.5309  -0.0723   0.0868  -0.0641   0.00    0.0
2343 219587.000   44.399815925    8.937673912   108.9034   6  18   0.2031   0.2008   0.5303  -0.0722   0.0867  -0.0642   0.00    0.0
2343 219588.000   44.399815904    8.937673930   108.9041   6  18   0.2027   0.2004   0.5296  -0.0720   0.0867  -0.0642   0.00    0.0
2343 219589.000   44.399815886    8.937673939   108.9049   6  18   0.2024   0.2001   0.5290  -0.0719   0.0866  -0.0642   0.00    0.0
2343 219590.000   44.399815867    8.937673959   108.9079   6  18   0.2020   0.1998   0.5284  -0.0718   0.0866  -0.0643   0.00    0.0
2343 219591.000   44.399815847    8.937673969   108.9110   6  18   0.2017   0.1994   0.5278  -0.0717   0.0865  -0.0643   0.00    0.0
2343 219592.000   44.399815828    8.937673979   108.9133   6  18   0.2014   0.1991   0.5272  -0.0716   0.0865  -0.0643   0.00    0.0
2343 219593.000   44.399815811    8.937673980   108.9151   6  18   0.2010   0.1988   0.5266  -0.0715   0.0864  -0.0644   0.00    0.0
2343 219594.000   44.399815797    8.937673987   108.9173   6  18   0.2007   0.1984   0.5260  -0.0714   0.0864  -0.0644   0.00    0.0
2343 219595.000   44.399815786    8.937674005   108.9196   6  18   0.2003   0.1981   0.5254  -0.0713   0.0863  -0.0644   0.00    0.0
2343 219596.000   44.399815772    8.937674023   108.9220   6  18   0.2000   0.1978   0.5248  -0.0712   0.0863  -0.0645   0.00    0.0
2343 219597.000   44.399815762    8.937674032   108.9251   6  18   0.1997   0.1975   0.5242  -0.0710   0.0863  -0.0645   0.00    0.0
2343 219598.000   44.399815751    8.937674044   108.9254   6  18   0.1994   0.1971   0.5236  -0.0709   0.0862  -0.0645   0.00    0.0
2343 219599.000   44.399815742    8.937674052   108.9262   6  18   0.1990   0.1968   0.5230  -0.0708   0.0862  -0.0645   0.00    0.0
2343 219600.000   44.399815731    8.937674056   108.9249   6  18   0.1987   0.1965   0.5224  -0.0707   0.0861  -0.0646   0.00    0.0
2343 219601.000   44.399815724    8.937674064   108.9238   6  18   0.1984   0.1962   0.5218  -0.0706   0.0861  -0.0646   0.00    0.0
2343 219602.000   44.399815714    8.937674071   108.9236   6  18   0.1981   0.1959   0.5212  -0.0705   0.0860  -0.0646   0.00    0.0
2343 219603.000   44.399815696    8.937674076   108.9231   6  18   0.1977   0.1956   0.5207  -0.0704   0.0860  -0.0647   0.00    0.0
2343 219604.000   44.399815673    8.937674089   108.9222   6  18   0.1974   0.1952   0.5201  -0.0703   0.0859  -0.0647   0.00    0.0
2343 219605.000   44.399815646    8.937674101   108.9216   6  18   0.1971   0.1949   0.5195  -0.0702   0.0859  -0.0647   0.00    0.0
2343 219606.000   44.399815617    8.937674113   108.9207   6  18   0.1968   0.1946   0.5189  -0.0701   0.0858  -0.0647   0.00    0.0
2343 219607.000   44.399815587    8.937674115   108.9203   6  18   0.1965   0.1943   0.5184  -0.0700   0.0858  -0.0648   0.00    0.0
2343 219608.000   44.399815557    8.937674123   108.9189   6  18   0.1962   0.1940   0.5178  -0.0699   0.0858  -0.0648   0.00    0.0
2343 219609.000   44.399815531    8.937674127   108.9186   6  18   0.1959   0.1937   0.5173  -0.0698   0.0857  -0.0648   0.00    0.0
2343 219610.000   44.399815502    8.937674128   108.9190   6  18   0.1956   0.1934   0.5167  -0.0697   0.0857  -0.0648   0.00    0.0
2343 219611.000   44.399815474    8.937674128   108.9188   6  18   0.1952   0.1931   0.5161  -0.0696   0.0856  -0.0649   0.00    0.0
2343 219612.000   44.399815444    8.937674130   108.9171   6  18   0.1949   0.1928   0.5156  -0.0695   0.0856  -0.0649   0.00    0.0
2343 219613.000   44.399815407    8.937674134   108.9156   6  18   0.1946   0.1925   0.5150  -0.0694   0.0855  -0.0649   0.00    0.0
2343 219614.000   44.399815372    8.937674137   108.9143   6  18   0.1943   0.1922   0.5145  -0.0693   0.0855  -0.0649   0.00    0.0
2343 219615.000   44.399815342    8.937674137   108.9118   6  18   0.1940   0.1919   0.5139  -0.0692   0.0854  -0.0650   0.00    0.0
2343 219616.000   44.399815312    8.937674139   108.9084   6  18   0.1937   0.1916   0.5134  -0.0691   0.0854  -0.0650   0.00    0.0
2343 219617.000   44.399815283    8.937674140   108.9051   6  18   0.1934   0.1913   0.5129  -0.0690   0.0854  -0.0650   0.00    0.0
2343 219618.000   44.399815255    8.937674139   108.9033   6  18   0.1931   0.1910   0.5123  -0.0689   0.0853  -0.0650   0.00    0.0
2343 219619.000   44.399815233    8.937674136   108.9013   6  18   0.1928   0.1907   0.5118  -0.0688   0.0853  -0.0651   0.00    0.0
2343 219620.000   44.399815213    8.937674133   108.9006   6  18   0.1925   0.1904   0.5113  -0.0687   0.0852  -0.0651   0.00    0.0
2343 219621.000   44.399815197    8.937674130   108.8977   6  18   0.1922   0.1902   0.5107  -0.0686   0.0852  -0.0651   0.00    0.0
2343 219622.000   44.399815180    8.937674124   108.8937   6  18   0.1919   0.1899   0.5102  -0.0685   0.0851  -0.0651   0.00    0.0
2343 219623.000   44.399815161    8.937674114   108.8909   6  18   0.1917   0.1896   0.5097  -0.0684   0.0851  -0.0652   0.00    0.0
2343 219624.000   44.399815145    8.937674097   108.8874   6  18   0.1914   0.1893   0.5091  -0.0683   0.0851  -0.0652   0.00    0.0
2343 219625.000   44.399815126    8.937674083   108.8847   6  18   0.1911   0.1890   0.5086  -0.0682   0.0850  -0.0652   0.00    0.0
2343 219626.000   44.399815106    8.937674066   108.8815   6  18   0.1908   0.1887   0.5081  -0.0681   0.0850  -0.0652   0.00    0.0
2343 219627.000   44.399815086    8.937674054   108.8782   6  18   0.1905   0.1884   0.5076  -0.0680   0.0849  -0.0652   0.00    0.0
2343 219628.000   44.399815065    8.937674045   108.8754   6  18   0.1902   0.1882   0.5071  -0.0679   0.0849  -0.0653   0.00    0.0
2343 219629.000   44.399815045    8.937674038   108.8724   6  18   0.1899   0.1879   0.5066  -0.0679   0.0848  -0.0653   0.00    0.0
2343 219630.000   44.399815027    8.937674028   108.8693   6  18   0.1897   0.1876   0.5061  -0.0678   0.0848  -0.0653   0.00    0.0
2343 219631.000   44.399815011    8.937674015   108.8673   6  18   0.1894   0.1873   0.5055  -0.0677   0.0847  -0.0653   0.00    0.0
2343 219632.000   44.399814992    8.937674007   108.8663   6  18   0.1891   0.1871   0.5050  -0.0676   0.0847  -0.0653   0.00    0.0
2343 219633.000   44.399814972    8.937673997   108.8657   6  18   0.1888   0.1868   0.5045  -0.0675   0.0847  -0.0654   0.00    0.0
2343 219634.000   44.399814950    8.937673990   108.8658   6  18   0.1885   0.1865   0.5040  -0.0674   0.0846  -0.0654   0.00    0.0
2343 219635.000   44.399814924    8.937673991   108.8657   6  18   0.1883   0.1862   0.5035  -0.0673   0.0846  -0.0654   0.00    0.0
2343 219636.000   44.399814892    8.937673996   108.8639   6  18   0.1880   0.1860   0.5030  -0.0672   0.0845  -0.0654   0.00    0.0
2343 219637.000   44.399814862    8.937674000   108.8630   6  18   0.1877   0.1857   0.5026  -0.0671   0.0845  -0.0654   0.00    0.0
2343 219638.000   44.399814841    8.937673999   108.8628   6  18   0.1874   0.1854   0.5021  -0.0670   0.0845  -0.0655   0.00    0.0
2343 219639.000   44.399814813    8.937674002   108.8616   6  18   0.1872   0.1852   0.5016  -0.0670   0.0844  -0.0655   0.00    0.0
2343 219640.000   44.399814782    8.937674005   108.8599   6  18   0.1869   0.1849   0.5011  -0.0669   0.0844  -0.0655   0.00    0.0
2343 219641.000   44.399814750    8.937674007   108.8573   6  18   0.1866   0.1846   0.5006  -0.0668   0.0843  -0.0655   0.00    0.0
2343 219642.000   44.399814722    8.937674010   108.8552   6  18   0.1864   0.1844   0.5001  -0.0667   0.0843  -0.0655   0.00    0.0
2343 219643.000   44.399814692    8.937674016   108.8539   6  18   0.1861   0.1841   0.4996  -0.0666   0.0842  -0.0655   0.00    0.0
2343 219644.000   44.399814669    8.937674022   108.8531   6  18   0.1858   0.1839   0.4992  -0.0665   0.0842  -0.0656   0.00    0.0
2343 219645.000   44.399814651    8.937674024   108.8535   6  18   0.1856   0.1836   0.4987  -0.0664   0.0842  -0.0656   0.00    0.0
2343 219646.000   44.399814629    8.937674019   108.8512   6  18   0.1853   0.1833   0.4982  -0.0663   0.0841  -0.0656   0.00    0.0
2343 219647.000   44.399814609    8.937674015   108.8490   6  18   0.1850   0.1831   0.4977  -0.0663   0.0841  -0.0656   0.00    0.0
2343 219648.000   44.399814588    8.937674007   108.8466   6  18   0.1848   0.1828   0.4973  -0.0662   0.0840  -0.0656   0.00    0.0
2343 219649.000   44.399814566    8.937674005   108.8451   6  18   0.1845   0.1826   0.4968  -0.0661   0.0840  -0.0656   0.00    0.0
2343 219650.000   44.399814552    8.937674006   108.8427   6  18   0.1843   0.1823   0.4963  -0.0660   0.0839  -0.0657   0.00    0.0
2343 219651.000   44.399814537    8.937674002   108.8401   6  18   0.1840   0.1821   0.4959  -0.0659   0.0839  -0.0657   0.00    0.0
2343 219652.000   44.399814523    8.937673996   108.8395   6  18   0.1837   0.1818   0.4954  -0.0658   0.0839  -0.0657   0.00    0.0
2343 219653.000   44.399814512    8.937673992   108.8379   6  18   0.1835   0.1816   0.4949  -0.0658   0.0838  -0.0657   0.00    0.0
2343 219654.000   44.399814503    8.937673985   108.8373   6  18   0.1832   0.1813   0.4945  -0.0657   0.0838  -0.0657   0.00    0.0
2343 219655.000   44.399814493    8.937673983   108.8357   6  18   0.1830   0.1811   0.4940  -0.0656   0.0837  -0.0657   0.00    0.0
2343 219656.000   44.399814484    8.937673979   108.8333   6  18   0.1827   0.1808   0.4936  -0.0655   0.0837  -0.0657   0.00    0.0
2343 219657.000   44.399814476    8.937673975   108.8312   6  18   0.1825   0.1806   0.4931  -0.0654   0.0837  -0.0658   0.00    0.0
2343 219658.000   44.399814466    8.937673969   108.8290   6  18   0.1822   0.1803   0.4927  -0.0653   0.0836  -0.0658   0.00    0.0
2343 219659.000   44.399814458    8.937673968   108.8254   6  18   0.1820   0.1801   0.4922  -0.0653   0.0836  -0.0658   0.00    0.0
2343 219660.000   44.399814445    8.937673965   108.8222   6  18   0.1817   0.1798   0.4918  -0.0652   0.0835  -0.0658   0.00    0.0
2343 219661.000   44.399814437    8.937673967   108.8189   6  18   0.1815   0.1796   0.4913  -0.0651   0.0835  -0.0658   0.00    0.0
2343 219662.000   44.399814424    8.937673971   108.8153   6  18   0.1812   0.1794   0.4909  -0.0650   0.0835  -0.0658   0.00    0.0
2343 219663.000   44.399814412    8.937673974   108.8108   6  18   0.1810   0.1791   0.4904  -0.0649   0.0834  -0.0658   0.00    0.0
2343 219664.000   44.399814395    8.937673979   108.8060   6  18   0.1807   0.1789   0.4900  -0.0649   0.0834  -0.0658   0.00    0.0
2343 219665.000   44.399814376    8.937673984   108.8010   6  18   0.1805   0.1786   0.4896  -0.0648   0.0833  -0.0659   0.00    0.0
2343 219666.000   44.399814354    8.937673985   108.7961   6  18   0.1803   0.1784   0.4891  -0.0647   0.0833  -0.0659   0.00    0.0
2343 219667.000   44.399814333    8.937673991   108.7923   6  18   0.1800   0.1782   0.4887  -0.0646   0.0833  -0.0659   0.00    0.0
2343 219668.000   44.399814314    8.937673995   108.7879   6  18   0.1798   0.1779   0.4883  -0.0646   0.0832  -0.0659   0.00    0.0
2343 219669.000   44.399814296    8.937673997   108.7833   6  18   0.1795   0.1777   0.4878  -0.0645   0.0832  -0.0659   0.00    0.0
2343 219670.000   44.399814281    8.937673991   108.7789   6  18   0.1793   0.1775   0.4874  -0.0644   0.0831  -0.0659   0.00    0.0
2343 219671.000   44.399814261    8.937673985   108.7752   6  18   0.1791   0.1772   0.4870  -0.0643   0.0831  -0.0659   0.00    0.0
2343 219672.000   44.399814237    8.937673979   108.7715   6  18   0.1788   0.1770   0.4865  -0.0642   0.0831  -0.0659   0.00    0.0
2343 219673.000   44.399814218    8.937673974   108.7680   6  18   0.1786   0.1768   0.4861  -0.0642   0.0830  -0.0660   0.00    0.0
2343 219674.000   44.399814197    8.937673973   108.7639   6  18   0.1783   0.1765   0.4857  -0.0641   0.0830  -0.0660   0.00    0.0
2343 219675.000   44.399814174    8.937673966   108.7599   6  18   0.1781   0.1763   0.4853  -0.0640   0.0829  -0.0660   0.00    0.0
2343 219676.000   44.399814153    8.937673955   108.7577   6  18   0.1779   0.1761   0.4848  -0.0639   0.0829  -0.0660   0.00    0.0
2343 219677.000   44.399814134    8.937673948   108.7558   6  18   0.1776   0.1758   0.4844  -0.0639   0.0829  -0.0660   0.00    0.0
2343 219678.000   44.399814121    8.937673932   108.7534   6  18   0.1774   0.1756   0.4840  -0.0638   0.0828  -0.0660   0.00    0.0
2343 219679.000   44.399814107    8.937673921   108.7512   6  18   0.1772   0.1754   0.4836  -0.0637   0.0828  -0.0660   0.00    0.0
2343 219680.000   44.399814093    8.937673911   108.7494   6  18   0.1770   0.1752   0.4832  -0.0636   0.0827  -0.0660   0.00    0.0
2343 219681.000   44.399814083    8.937673900   108.7481   6  18   0.1767   0.1749   0.4828  -0.0636   0.0827  -0.0660   0.00    0.0
2343 219682.000   44.399814074    8.937673893   108.7483   6  18   0.1765   0.1747   0.4824  -0.0635   0.0827  -0.0660   0.00    0.0
2343 219683.000   44.399814067    8.937673884   108.7476   6  18   0.1763   0.1745   0.4819  -0.0634   0.0826  -0.0661   0.00    0.0
2343 219684.000   44.399814059    8.937673877   108.7474   6  18   0.1760   0.1743   0.4815  -0.0633   0.0826  -0.0661   0.00    0.0
2343 219685.000   44.399814048    8.937673867   108.7466   6  18   0.1758   0.1741   0.4811  -0.0633   0.0826  -0.0661   0.00    0.0
2343 219686.000   44.399814043    8.937673851   108.7458   6  18   0.1756   0.1738   0.4807  -0.0632   0.0825  -0.0661   0.00    0.0
2343 219687.000   44.399814039    8.937673840   108.7457   6  18   0.1754   0.1736   0.4803  -0.0631   0.0825  -0.0661   0.00    0.0
2343 219688.000   44.399814038    8.937673823   108.7439   6  18   0.1751   0.1734   0.4799  -0.0631   0.0824  -0.0661   0.00    0.0
2343 219689.000   44.399814033    8.937673807   108.7440   6  18   0.1749   0.1732   0.4795  -0.0630   0.0824  -0.0661   0.00    0.0
2343 219690.000   44.399814025    8.937673792   108.7432   6  18   0.1747   0.1730   0.4791  -0.0629   0.0824  -0.0661   0.00    0.0
2343 219691.000   44.399814013    8.937673784   108.7428   6  18   0.1745   0.1728   0.4787  -0.0628   0.0823  -0.0661   0.00    0.0
2343 219692.000   44.399814004    8.937673776   108.7414   6  18   0.1743   0.1725   0.4783  -0.0628   0.0823  -0.0661   0.00    0.0
2343 219693.000   44.399813991    8.937673768   108.7408   6  18   0.1740   0.1723   0.4779  -0.0627   0.0822  -0.0661   0.00    0.0
2343 219694.000   44.399813977    8.937673764   108.7400   6  18   0.1738   0.1721   0.4776  -0.0626   0.0822  -0.0661   0.00    0.0
2343 219695.000   44.399813964    8.937673757   108.7399   6  18   0.1736   0.1719   0.4772  -0.0626   0.0822  -0.0662   0.00    0.0
2343 219696.000   44.399813950    8.937673760   108.7405   6  18   0.1734   0.1717   0.4768  -0.0625   0.0821  -0.0662   0.00    0.0
2343 219697.000   44.399813935    8.937673762   108.7400   6  18   0.1732   0.1715   0.4764  -0.0624   0.0821  -0.0662   0.00    0.0
2343 219698.000   44.399813927    8.937673760   108.7390   6  18   0.1730   0.1713   0.4760  -0.0623   0.0821  -0.0662   0.00    0.0
2343 219699.000   44.399813912    8.937673762   108.7386   6  18   0.1727   0.1711   0.4756  -0.0623   0.0820  -0.0662   0.00    0.0
2343 219700.000   44.399813890    8.937673759   108.7388   6  18   0.1725   0.1708   0.4752  -0.0622   0.0820  -0.0662   0.00    0.0
2343 219701.000   44.399813869    8.937673758   108.7381   6  18   0.1723   0.1706   0.4748  -0.0621   0.0819  -0.0662   0.00    0.0
2343 219702.000   44.399813850    8.937673750   108.7373   6  18   0.1721   0.1704   0.4745  -0.0621   0.0819  -0.0662   0.00    0.0
2343 219703.000   44.399813833    8.937673735   108.7376   6  18   0.1719   0.1702   0.4741  -0.0620   0.0819  -0.0662   0.00    0.0
2343 219704.000   44.399813814    8.937673729   108.7375   6  18   0.1717   0.1700   0.4737  -0.0619   0.0818  -0.0662   0.00    0.0
2343 219705.000   44.399813795    8.937673725   108.7365   6  18   0.1715   0.1698   0.4733  -0.0619   0.0818  -0.0662   0.00    0.0
2343 219706.000   44.399813774    8.937673722   108.7357   6  18   0.1713   0.1696   0.4730  -0.0618   0.0818  -0.0662   0.00    0.0
2343 219707.000   44.399813757    8.937673723   108.7348   6  18   0.1711   0.1694   0.4726  -0.0617   0.0817  -0.0662   0.00    0.0
2343 219708.000   44.399813735    8.937673721   108.7340   6  18   0.1709   0.1692   0.4722  -0.0617   0.0817  -0.0662   0.00    0.0
2343 219709.000   44.399813718    8.937673718   108.7328   6  18   0.1706   0.1690   0.4718  -0.0616   0.0816  -0.0662   0.00    0.0
2343 219710.000   44.399813707    8.937673715   108.7329   6  18   0.1704   0.1688   0.4715  -0.0615   0.0816  -0.0663   0.00    0.0
2343 219711.000   44.399813699    8.937673711   108.7330   6  18   0.1702   0.1686   0.4711  -0.0615   0.0816  -0.0663   0.00    0.0
2343 219712.000   44.399813686    8.937673712   108.7335   6  18   0.1700   0.1684   0.4707  -0.0614   0.0815  -0.0663   0.00    0.0
2343 219713.000   44.399813671    8.937673708   108.7353   6  18   0.1698   0.1682   0.4704  -0.0613   0.0815  -0.0663   0.00    0.0
2343 219714.000   44.399813655    8.937673703   108.7356   6  18   0.1696   0.1680   0.4700  -0.0613   0.0815  -0.0663   0.00    0.0
2343 219715.000   44.399813639    8.937673701   108.7363   6  18   0.1694   0.1678   0.4696  -0.0612   0.0814  -0.0663   0.00    0.0
2343 219716.000   44.399813626    8.937673693   108.7373   6  18   0.1692   0.1676   0.4693  -0.0611   0.0814  -0.0663   0.00    0.0
2343 219717.000   44.399813613    8.937673684   108.7370   6  18   0.1690   0.1674   0.4689  -0.0611   0.0814  -0.0663   0.00    0.0
2343 219718.000   44.399813600    8.937673676   108.7363   6  18   0.1688   0.1672   0.4685  -0.0610   0.0813  -0.0663   0.00    0.0
2343 219719.000   44.399813581    8.937673669   108.7361   6  18   0.1686   0.1670   0.4682  -0.0610   0.0813  -0.0663   0.00    0.0
2343 219720.000   44.399813561    8.937673663   108.7343   6  18   0.1684   0.1668   0.4678  -0.0609   0.0812  -0.0663   0.00    0.0
2343 219721.000   44.399813548    8.937673650   108.7331   6  18   0.1682   0.1666   0.4675  -0.0608   0.0812  -0.0663   0.00    0.0
2343 219722.000   44.399813534    8.937673644   108.7327   6  18   0.1680   0.1665   0.4671  -0.0608   0.0812  -0.0663   0.00    0.0
2343 219723.000   44.399813515    8.937673635   108.7317   6  18   0.1678   0.1663   0.4668  -0.0607   0.0811  -0.0663   0.00    0.0
2343 219724.000   44.399813502    8.937673629   108.7313   6  18   0.1676   0.1661   0.4664  -0.0606   0.0811  -0.0663   0.00    0.0
2343 219725.000   44.399813488    8.937673618   108.7312   6  18   0.1674   0.1659   0.4661  -0.0606   0.0811  -0.0663   0.00    0.0
2343 219726.000   44.399813474    8.937673608   108.7300   6  18   0.1672   0.1657   0.4657  -0.0605   0.0810  -0.0663   0.00    0.0
2343 219727.000   44.399813460    8.937673603   108.7296   6  18   0.1671   0.1655   0.4654  -0.0604   0.0810  -0.0663   0.00    0.0
2343 219728.000   44.399813443    8.937673598   108.7290   6  18   0.1669   0.1653   0.4650  -0.0604   0.0810  -0.0663   0.00    0.0
2343 219729.000   44.399813428    8.937673594   108.7289   6  18   0.1667   0.1651   0.4647  -0.0603   0.0809  -0.0663   0.00    0.0
2343 219730.000   44.399813411    8.937673594   108.7280   6  18   0.1665   0.1649   0.4643  -0.0603   0.0809  -0.0663   0.00    0.0
2343 219731.000   44.399813397    8.937673591   108.7279   6  18   0.1663   0.1647   0.4640  -0.0602   0.0809  -0.0663   0.00    0.0
2343 219732.000   44.399813380    8.937673583   108.7269   6  18   0.1661   0.1646   0.4636  -0.0601   0.0808  -0.0664   0.00    0.0
2343 219733.000   44.399813366    8.937673584   108.7266   6  18   0.1659   0.1644   0.4633  -0.0601   0.0808  -0.0664   0.00    0.0
2343 219734.000   44.399813354    8.937673584   108.7265   6  18   0.1657   0.1642   0.4629  -0.0600   0.0807  -0.0664   0.00    0.0
2343 219735.000   44.399813343    8.937673587   108.7272   6  18   0.1655   0.1640   0.4626  -0.0600   0.0807  -0.0664   0.00    0.0
2343 219736.000   44.399813333    8.937673584   108.7281   6  18   0.1653   0.1638   0.4623  -0.0599   0.0807  -0.0664   0.00    0.0
2343 219737.000   44.399813321    8.937673581   108.7295   6  18   0.1651   0.1636   0.4619  -0.0598   0.0806  -0.0664   0.00    0.0
2343 219738.000   44.399813309    8.937673580   108.7312   6  18   0.1650   0.1635   0.4616  -0.0598   0.0806  -0.0664   0.00    0.0
2343 219739.000   44.399813297    8.937673573   108.7318   6  18   0.1648   0.1633   0.4612  -0.0597   0.0806  -0.0664   0.00    0.0
2343 219740.000   44.399813283    8.937673569   108.7334   6  18   0.1646   0.1631   0.4609  -0.0597   0.0805  -0.0664   0.00    0.0
