%  GPST          latitude(deg) longitude(deg)  height(m)   Q  ns   sdn(m)   sde(m)   sdu(m)  sdne(m)  sdeu(m)  sdun(m) age(s)  ratio
2344 121856.000   44.399820127    8.937741187   117.2863   6   5  12.2353  13.9315  17.3567  10.1625   9.1943   9.5907   0.00    0.0
2344 121857.000   44.399823714    8.937745492   117.5366   6   5   8.8909  10.1341  12.6471   7.4667   6.8216   7.0790   0.00    0.0
2344 121858.000   44.399816532    8.937703290   112.9944   6  11   4.4834   4.7994   7.8604   2.9422   3.1693   2.9705   0.00    0.0
2344 121859.000   44.399818475    8.937697215   112.0658   6  11   3.4333   3.6264   6.2665   2.1147   2.4152   2.1090   0.00    0.0
2344 121860.000   44.399819277    8.937695700   111.6686   6  11   2.8908   3.0354   5.3712   1.7283   2.0331   1.7036   0.00    0.0
2344 121861.000   44.399819253    8.937693649   111.3364   6  11   2.5449   2.6633   4.7772   1.4953   1.7904   1.4607   0.00    0.0
2344 121862.000   44.399819068    8.937692197   111.1562   6  11   2.2996   2.4015   4.3459   1.3359   1.6182   1.2959   0.00    0.0
2344 121863.000   44.399819265    8.937691570   111.0396   6  11   2.1140   2.2044   4.0144   1.2183   1.4879   1.1752   0.00    0.0
2344 121864.000   44.399819605    8.937691543   110.9868   6  11   1.9672   2.0491   3.7494   1.1270   1.3846   1.0821   0.00    0.0
2344 121865.000   44.399819923    8.937691338   110.9720   6  11   1.8473   1.9227   3.5311   1.0534   1.3002   1.0075   0.00    0.0
2344 121866.000   44.399820023    8.937691532   111.0372   6  11   1.7470   1.8171   3.3474   0.9926   1.2295   0.9462   0.00    0.0
2344 121867.000   44.399820051    8.937691895   111.0842   6  11   1.6614   1.7272   3.1900   0.9413   1.1691   0.8946   0.00    0.0
2344 121868.000   44.399819842    8.937692009   111.0896   6  11   1.5873   1.6495   3.0532   0.8971   1.1168   0.8504   0.00    0.0
2344 121869.000   44.399819722    8.937692343   111.0941   6  11   1.5224   1.5815   2.9328   0.8586   1.0709   0.8120   0.00    0.0
2344 121870.000   44.399819639    8.937692471   111.1158   6  11   1.4648   1.5212   2.8258   0.8247   1.0301   0.7782   0.00    0.0
2344 121871.000   44.399819354    8.937692498   111.1083   6  11   1.4133   1.4674   2.7299   0.7946   0.9936   0.7482   0.00    0.0
2344 121872.000   44.399819146    8.937692639   111.1230   6  11   1.3669   1.4189   2.6433   0.7675   0.9607   0.7214   0.00    0.0
2344 121873.000   44.399818860    8.937692967   111.1629   6  11   1.3248   1.3749   2.5646   0.7430   0.9308   0.6972   0.00    0.0
2344 121874.000   44.399818588    8.937693182   111.1904   6  11   1.2863   1.3348   2.4927   0.7208   0.9035   0.6752   0.00    0.0
2344 121875.000   44.399818254    8.937693422   111.2123   6  11   1.2511   1.2981   2.4267   0.7004   0.8785   0.6550   0.00    0.0
2344 121876.000   44.399818070    8.937693585   111.2223   6  11   1.2186   1.2642   2.3657   0.6817   0.8554   0.6366   0.00    0.0
2344 121877.000   44.399817801    8.937693765   111.2354   6  11   1.1885   1.2328   2.3092   0.6644   0.8339   0.6195   0.00    0.0
2344 121878.000   44.399816961    8.937692364   111.2289   6  15   1.1437   1.1617   2.2422   0.6173   0.7735   0.5999   0.00    0.0
2344 121879.000   44.399816402    8.937691347   111.2011   6  15   1.1042   1.1021   2.1817   0.5781   0.7230   0.5837   0.00    0.0
2344 121880.000   44.399815875    8.937690690   111.1992   6  15   1.0688   1.0508   2.1266   0.5448   0.6797   0.5698   0.00    0.0
2344 121881.000   44.399815493    8.937690038   111.1850   6  15   1.0368   1.0061   2.0761   0.5160   0.6422   0.5576   0.00    0.0
2344 121882.000   44.399815106    8.937689535   111.1758   6  15   1.0077   0.9668   2.0294   0.4908   0.6092   0.5467   0.00    0.0
2344 121883.000   44.399814784    8.937689200   111.1550   6  15   0.9810   0.9318   1.9861   0.4686   0.5801   0.5367   0.00    0.0
2344 121884.000   44.399814559    8.937688942   111.1514   6  15   0.9564   0.9003   1.9457   0.4489   0.5540   0.5275   0.00    0.0
2344 121885.000   44.399814296    8.937688749   111.1544   6  15   0.9337   0.8719   1.9079   0.4312   0.5306   0.5190   0.00    0.0
2344 121886.000   44.399814162    8.937688545   111.1778   6  15   0.9126   0.8460   1.8724   0.4152   0.5094   0.5110   0.00    0.0
2344 121887.000   44.399814056    8.937688416   111.1950   6  15   0.8929   0.8223   1.8390   0.4007   0.4901   0.5034   0.00    0.0
2344 121888.000   44.399813871    8.937688336   111.1984   6  15   0.8744   0.8005   1.8075   0.3874   0.4725   0.4962   0.00    0.0
2344 121889.000   44.399813702    8.937688126   111.2006   6  15   0.8571   0.7804   1.7776   0.3753   0.4563   0.4894   0.00    0.0
2344 121890.000   44.399813539    8.937687902   111.2098   6  15   0.8408   0.7617   1.7494   0.3641   0.4414   0.4829   0.00    0.0
2344 121891.000   44.399813412    8.937687750   111.2186   6  15   0.8254   0.7443   1.7225   0.3538   0.4275   0.4766   0.00    0.0
2344 121892.000   44.399813284    8.937687621   111.2168   6  15   0.8108   0.7281   1.6969   0.3442   0.4147   0.4707   0.00    0.0
2344 121893.000   44.399813167    8.937687518   111.2087   6  15   0.7970   0.7129   1.6725   0.3353   0.4027   0.4649   0.00    0.0
2344 121894.000   44.399813054    8.937687355   111.1997   6  15   0.7839   0.6986   1.6492   0.3269   0.3916   0.4594   0.00    0.0
2344 121895.000   44.399813004    8.937687327   111.1938   6  15   0.7715   0.6851   1.6269   0.3192   0.3811   0.4540   0.00    0.0
2344 121896.000   44.399812902    8.937687323   111.1988   6  15   0.7596   0.6724   1.6056   0.3118   0.3713   0.4489   0.00    0.0
2344 121897.000   44.399812893    8.937687332   111.2101   6  15   0.7482   0.6604   1.5851   0.3050   0.3621   0.4439   0.00    0.0
2344 121898.000   44.399812835    8.937687336   111.2049   6  15   0.7374   0.6490   1.5655   0.2985   0.3534   0.4391   0.00    0.0
2344 121899.000   44.399812790    8.937687216   111.1937   6  15   0.7270   0.6382   1.5466   0.2924   0.3451   0.4344   0.00    0.0
2344 121900.000   44.399812772    8.937687143   111.1912   6  15   0.7171   0.6279   1.5284   0.2866   0.3373   0.4299   0.00    0.0
2344 121901.000   44.399812749    8.937687009   111.1832   6  15   0.7075   0.6181   1.5109   0.2811   0.3300   0.4255   0.00    0.0
2344 121902.000   44.399812779    8.937686863   111.1711   6  15   0.6984   0.6087   1.4941   0.2759   0.3230   0.4213   0.00    0.0
2344 121903.000   44.399812806    8.937686782   111.1623   6  15   0.6895   0.5998   1.4778   0.2710   0.3163   0.4171   0.00    0.0
2344 121904.000   44.399812799    8.937686798   111.1482   6  15   0.6811   0.5912   1.4621   0.2663   0.3100   0.4131   0.00    0.0
2344 121905.000   44.399812822    8.937686724   111.1421   6  15   0.6729   0.5830   1.4469   0.2618   0.3039   0.4092   0.00    0.0
2344 121906.000   44.399812784    8.937686629   111.1293   6  15   0.6650   0.5751   1.4322   0.2575   0.2981   0.4054   0.00    0.0
2344 121907.000   44.399812756    8.937686580   111.1312   6  15   0.6574   0.5676   1.4180   0.2534   0.2926   0.4017   0.00    0.0
2344 121908.000   44.399812713    8.937686562   111.1361   6  15   0.6500   0.5603   1.4043   0.2495   0.2873   0.3981   0.00    0.0
2344 121909.000   44.399812671    8.937686545   111.1342   6  15   0.6429   0.5533   1.3909   0.2457   0.2822   0.3946   0.00    0.0
2344 121910.000   44.399812597    8.937686494   111.1310   6  15   0.6360   0.5466   1.3780   0.2421   0.2774   0.3911   0.00    0.0
2344 121911.000   44.399812553    8.937686418   111.1246   6  15   0.6294   0.5401   1.3655   0.2386   0.2727   0.3878   0.00    0.0
2344 121912.000   44.399812480    8.937686345   111.1193   6  15   0.6229   0.5338   1.3533   0.2353   0.2682   0.3845   0.00    0.0
2344 121913.000   44.399812424    8.937686240   111.0994   6  15   0.6166   0.5278   1.3414   0.2321   0.2639   0.3814   0.00    0.0
2344 121914.000   44.399812328    8.937686193   111.0775   6  15   0.6106   0.5220   1.3299   0.2290   0.2598   0.3783   0.00    0.0
2344 121915.000   44.399812265    8.937686129   111.0775   6  15   0.6047   0.5163   1.3188   0.2260   0.2558   0.3752   0.00    0.0
2344 121916.000   44.399812158    8.937686091   111.0786   6  15   0.5989   0.5108   1.3079   0.2232   0.2519   0.3722   0.00    0.0
2344 121917.000   44.399812095    8.937686032   111.0791   6  15   0.5934   0.5055   1.2973   0.2204   0.2482   0.3693   0.00    0.0
2344 121918.000   44.399812030    8.937685991   111.0839   6  15   0.5879   0.5004   1.2870   0.2177   0.2446   0.3665   0.00    0.0
2344 121919.000   44.399812023    8.937685908   111.0876   6  15   0.5827   0.4954   1.2769   0.2151   0.2411   0.3637   0.00    0.0
2344 121920.000   44.399812027    8.937685876   111.0965   6  15   0.5775   0.4905   1.2671   0.2126   0.2377   0.3610   0.00    0.0
2344 121921.000   44.399812018    8.937685867   111.1110   6  15   0.5725   0.4858   1.2575   0.2102   0.2345   0.3583   0.00    0.0
2344 121922.000   44.399812026    8.937685870   111.1336   6  15   0.5677   0.4813   1.2482   0.2079   0.2313   0.3557   0.00    0.0
2344 121923.000   44.399812058    8.937685835   111.1587   6  15   0.5629   0.4768   1.2391   0.2056   0.2282   0.3532   0.00    0.0
2344 121924.000   44.399812066    8.937685757   111.1741   6  15   0.5583   0.4725   1.2302   0.2034   0.2253   0.3507   0.00    0.0
2344 121925.000   44.399812055    8.937685693   111.1952   6  15   0.5538   0.4683   1.2215   0.2013   0.2224   0.3482   0.00    0.0
2344 121926.000   44.399812063    8.937685636   111.2117   6  15   0.5494   0.4642   1.2131   0.1992   0.2196   0.3458   0.00    0.0
2344 121927.000   44.399812060    8.937685555   111.2217   6  15   0.5451   0.4602   1.2048   0.1972   0.2169   0.3435   0.00    0.0
2344 121928.000   44.399812071    8.937685493   111.2359   6  15   0.5409   0.4564   1.1967   0.1952   0.2143   0.3411   0.00    0.0
2344 121929.000   44.399812108    8.937685425   111.2404   6  15   0.5368   0.4526   1.1887   0.1933   0.2117   0.3389   0.00    0.0
2344 121930.000   44.399812125    8.937685358   111.2491   6  15   0.5327   0.4489   1.1810   0.1915   0.2092   0.3366   0.00    0.0
2344 121931.000   44.399812151    8.937685330   111.2605   6  15   0.5288   0.4453   1.1734   0.1897   0.2068   0.3345   0.00    0.0
2344 121932.000   44.399812161    8.937685310   111.2677   6  15   0.5250   0.4418   1.1660   0.1879   0.2044   0.3323   0.00    0.0
2344 121933.000   44.399812154    8.937685265   111.2809   6  15   0.5212   0.4383   1.1587   0.1862   0.2021   0.3302   0.00    0.0
2344 121934.000   44.399812171    8.937685213   111.2927   6  15   0.5175   0.4350   1.1516   0.1845   0.1998   0.3281   0.00    0.0
2344 121935.000   44.399812150    8.937685171   111.3019   6  15   0.5139   0.4317   1.1446   0.1829   0.1977   0.3261   0.00    0.0
2344 121936.000   44.399812132    8.937685098   111.3110   6  15   0.5104   0.4285   1.1377   0.1813   0.1955   0.3241   0.00    0.0
2344 121937.000   44.399812100    8.937685034   111.3127   6  15   0.5070   0.4253   1.1310   0.1798   0.1934   0.3221   0.00    0.0
2344 121938.000   44.399812075    8.937684962   111.3185   6  15   0.5036   0.4223   1.1245   0.1783   0.1914   0.3202   0.00    0.0
2344 121939.000   44.399812089    8.937684905   111.3252   6  15   0.5003   0.4193   1.1180   0.1768   0.1894   0.3183   0.00    0.0
2344 121940.000   44.399812089    8.937684833   111.3308   6  15   0.4970   0.4163   1.1117   0.1753   0.1875   0.3164   0.00    0.0
2344 121941.000   44.399812089    8.937684738   111.3371   6  15   0.4938   0.4135   1.1055   0.1739   0.1856   0.3146   0.00    0.0
2344 121942.000   44.399812057    8.937684640   111.3359   6  15   0.4907   0.4106   1.0994   0.1726   0.1837   0.3128   0.00    0.0
2344 121943.000   44.399812042    8.937684559   111.3374   6  15   0.4876   0.4079   1.0934   0.1712   0.1819   0.3110   0.00    0.0
2344 121944.000   44.399812010    8.937684462   111.3327   6  15   0.4846   0.4052   1.0875   0.1699   0.1801   0.3093   0.00    0.0
2344 121945.000   44.399811949    8.937684329   111.3217   6  15   0.4816   0.4025   1.0818   0.1686   0.1784   0.3075   0.00    0.0
2344 121946.000   44.399811909    8.937684235   111.3120   6  15   0.4787   0.3999   1.0761   0.1674   0.1767   0.3058   0.00    0.0
2344 121947.000   44.399811881    8.937684133   111.3040   6  15   0.4759   0.3974   1.0705   0.1661   0.1750   0.3042   0.00    0.0
2344 121948.000   44.399811844    8.937683996   111.2959   6  15   0.4731   0.3949   1.0651   0.1649   0.1734   0.3025   0.00    0.0
2344 121949.000   44.399811837    8.937683871   111.2875   6  15   0.4703   0.3924   1.0597   0.1637   0.1718   0.3009   0.00    0.0
2344 121950.000   44.399811815    8.937683741   111.2777   6  15   0.4676   0.3900   1.0544   0.1626   0.1702   0.2993   0.00    0.0
2344 121951.000   44.399811787    8.937683640   111.2736   6  15   0.4649   0.3876   1.0492   0.1614   0.1687   0.2977   0.00    0.0
2344 121952.000   44.399811746    8.937683568   111.2703   6  15   0.4623   0.3853   1.0441   0.1603   0.1672   0.2962   0.00    0.0
2344 121953.000   44.399811706    8.937683460   111.2670   6  15   0.4598   0.3830   1.0391   0.1592   0.1657   0.2946   0.00    0.0
2344 121954.000   44.399811699    8.937683365   111.2611   6  15   0.4572   0.3808   1.0341   0.1582   0.1643   0.2931   0.00    0.0
2344 121955.000   44.399811688    8.937683259   111.2556   6  15   0.4547   0.3786   1.0293   0.1571   0.1628   0.2916   0.00    0.0
2344 121956.000   44.399811699    8.937683181   111.2519   6  15   0.4523   0.3764   1.0245   0.1561   0.1614   0.2902   0.00    0.0
2344 121957.000   44.399811693    8.937683093   111.2499   6  15   0.4499   0.3743   1.0198   0.1551   0.1601   0.2887   0.00    0.0
2344 121958.000   44.399811701    8.937682987   111.2519   6  15   0.4475   0.3722   1.0151   0.1541   0.1587   0.2873   0.00    0.0
2344 121959.000   44.399811713    8.937682902   111.2556   6  15   0.4452   0.3702   1.0106   0.1531   0.1574   0.2859   0.00    0.0
2344 121960.000   44.399811713    8.937682814   111.2574   6  15   0.4429   0.3681   1.0061   0.1522   0.1561   0.2845   0.00    0.0
2344 121961.000   44.399811691    8.937682730   111.2535   6  15   0.4406   0.3662   1.0016   0.1512   0.1548   0.2831   0.00    0.0
2344 121962.000   44.399811681    8.937682631   111.2553   6  15   0.4384   0.3642   0.9973   0.1503   0.1536   0.2818   0.00    0.0
2344 121963.000   44.399811650    8.937682523   111.2498   6  15   0.4362   0.3623   0.9930   0.1494   0.1523   0.2805   0.00    0.0
2344 121964.000   44.399811630    8.937682425   111.2474   6  15   0.4340   0.3604   0.9887   0.1485   0.1511   0.2791   0.00    0.0
2344 121965.000   44.399811613    8.937682343   111.2440   6  15   0.4319   0.3585   0.9846   0.1476   0.1499   0.2779   0.00    0.0
2344 121966.000   44.399811600    8.937682275   111.2428   6  15   0.4298   0.3567   0.9805   0.1468   0.1488   0.2766   0.00    0.0
2344 121967.000   44.399811573    8.937682207   111.2386   6  15   0.4277   0.3549   0.9764   0.1459   0.1476   0.2753   0.00    0.0
2344 121968.000   44.399811561    8.937682132   111.2381   6  15   0.4257   0.3531   0.9724   0.1451   0.1465   0.2741   0.00    0.0
2344 121969.000   44.399811548    8.937682067   111.2398   6  15   0.4237   0.3513   0.9685   0.1443   0.1454   0.2728   0.00    0.0
2344 121970.000   44.399811516    8.937682000   111.2377   6  15   0.4217   0.3496   0.9646   0.1434   0.1443   0.2716   0.00    0.0
2344 121971.000   44.399811502    8.937681952   111.2381   6  15   0.4198   0.3479   0.9607   0.1427   0.1432   0.2704   0.00    0.0
2344 121972.000   44.399811477    8.937681898   111.2406   6  15   0.4178   0.3462   0.9570   0.1419   0.1421   0.2692   0.00    0.0
2344 121973.000   44.399811454    8.937681848   111.2428   6  15   0.4159   0.3446   0.9532   0.1411   0.1411   0.2680   0.00    0.0
2344 121974.000   44.399811441    8.937681807   111.2451   6  15   0.4141   0.3430   0.9496   0.1403   0.1400   0.2669   0.00    0.0
2344 121975.000   44.399811430    8.937681767   111.2475   6  15   0.4122   0.3413   0.9459   0.1396   0.1390   0.2657   0.00    0.0
2344 121976.000   44.399811418    8.937681707   111.2466   6  15   0.4104   0.3398   0.9424   0.1389   0.1380   0.2646   0.00    0.0
2344 121977.000   44.399811423    8.937681642   111.2516   6  15   0.4086   0.3382   0.9388   0.1381   0.1370   0.2635   0.00    0.0
2344 121978.000   44.399811403    8.937681585   111.2541   6  15   0.4068   0.3367   0.9353   0.1374   0.1360   0.2624   0.00    0.0
2344 121979.000   44.399811386    8.937681536   111.2584   6  15   0.4050   0.3351   0.9319   0.1367   0.1351   0.2613   0.00    0.0
2344 121980.000   44.399811390    8.937681520   111.2649   6  15   0.4033   0.3336   0.9285   0.1360   0.1341   0.2602   0.00    0.0
2344 121981.000   44.399811387    8.937681492   111.2694   6  15   0.4016   0.3322   0.9251   0.1354   0.1332   0.2591   0.00    0.0
2344 121982.000   44.399811387    8.937681452   111.2752   6  15   0.3999   0.3307   0.9218   0.1347   0.1322   0.2580   0.00    0.0
2344 121983.000   44.399811398    8.937681433   111.2785   6  15   0.3982   0.3293   0.9186   0.1340   0.1313   0.2570   0.00    0.0
2344 121984.000   44.399811396    8.937681393   111.2767   6  15   0.3966   0.3278   0.9153   0.1334   0.1304   0.2560   0.00    0.0
2344 121985.000   44.399811387    8.937681354   111.2766   6  15   0.3950   0.3264   0.9121   0.1327   0.1296   0.2549   0.00    0.0
2344 121986.000   44.399811392    8.937681317   111.2777   6  15   0.3934   0.3251   0.9090   0.1321   0.1287   0.2539   0.00    0.0
2344 121987.000   44.399811419    8.937681291   111.2814   6  15   0.3918   0.3237   0.9059   0.1315   0.1278   0.2529   0.00    0.0
2344 121988.000   44.399811428    8.937681258   111.2826   6  15   0.3902   0.3223   0.9028   0.1308   0.1270   0.2519   0.00    0.0
2344 121989.000   44.399811437    8.937681225   111.2832   6  15   0.3886   0.3210   0.8998   0.1302   0.1261   0.2510   0.00    0.0
2344 121990.000   44.399811445    8.937681187   111.2828   6  15   0.3871   0.3197   0.8968   0.1296   0.1253   0.2500   0.00    0.0
2344 121991.000   44.399811450    8.937681142   111.2807   6  15   0.3856   0.3184   0.8938   0.1290   0.1245   0.2490   0.00    0.0
2344 121992.000   44.399811460    8.937681116   111.2795   6  15   0.3841   0.3171   0.8909   0.1284   0.1236   0.2481   0.00    0.0
2344 121993.000   44.399811474    8.937681104   111.2771   6  15   0.3826   0.3158   0.8880   0.1279   0.1228   0.2471   0.00    0.0
2344 121994.000   44.399811495    8.937681092   111.2752   6  15   0.3812   0.3146   0.8851   0.1273   0.1221   0.2462   0.00    0.0
2344 121995.000   44.399811517    8.937681066   111.2735   6  15   0.3797   0.3133   0.8823   0.1267   0.1213   0.2453   0.00    0.0
