%  GPST          latitude(deg) longitude(deg)  height(m)   Q  ns   sdn(m)   sde(m)   sdu(m)  sdne(m)  sdeu(m)  sdun(m) age(s)  ratio
2342 230563.000   44.399810046    8.937688985   104.1141   6  22   3.4615   2.4418   7.4228  -0.6354   1.3143  -0.7800   0.00    0.0
2342 230564.000   44.399809489    8.937689212   104.2067   6  22   2.4598   1.7343   5.2956  -0.4554   0.9426  -0.5942   0.00    0.0
2342 230565.000   44.399808959    8.937689411   104.2200   6  22   2.0118   1.4181   4.3402  -0.3736   0.7734  -0.4999   0.00    0.0
2342 230566.000   44.399808847    8.937689659   104.2045   6  22   1.7438   1.2291   3.7680  -0.3244   0.6715  -0.4414   0.00    0.0
2342 230567.000   44.399808607    8.937690011   104.1592   6  22   1.5606   1.0998   3.3767  -0.2906   0.6016  -0.4008   0.00    0.0
2342 230568.000   44.399808163    8.937689992   104.0933   6  22   1.4252   1.0043   3.0877  -0.2656   0.5498  -0.3706   0.00    0.0
2342 230569.000   44.399807838    8.937689984   103.9883   6  22   1.3198   0.9300   2.8630  -0.2461   0.5095  -0.3471   0.00    0.0
2342 230570.000   44.399807598    8.937689863   103.8715   6  22   1.2349   0.8700   2.6819  -0.2304   0.4769  -0.3282   0.00    0.0
2342 230571.000   44.399807485    8.937689625   103.7852   6  22   1.1645   0.8204   2.5320  -0.2174   0.4499  -0.3126   0.00    0.0
2342 230572.000   44.399807441    8.937689616   103.7422   6  22   1.1049   0.7783   2.4052  -0.2064   0.4270  -0.2994   0.00    0.0
2342 230573.000   44.399807463    8.937689676   103.7033   6  22   1.0537   0.7422   2.2962  -0.1969   0.4073  -0.2881   0.00    0.0
2342 230574.000   44.399807569    8.937689688   103.6665   6  22   1.0090   0.7106   2.2012  -0.1886   0.3901  -0.2783   0.00    0.0
2342 230575.000   44.399807627    8.937689701   103.6376   6  22   0.9695   0.6828   2.1174  -0.1813   0.3750  -0.2697   0.00    0.0
2342 230576.000   44.399807558    8.937689639   103.6007   6  22   0.9343   0.6580   2.0428  -0.1747   0.3614  -0.2621   0.00    0.0
2342 230577.000   44.399807415    8.937689696   103.5653   6  22   0.9027   0.6357   1.9759  -0.1689   0.3493  -0.2552   0.00    0.0
2342 230578.000   44.399807326    8.937689680   103.5423   6  22   0.8742   0.6155   1.9154  -0.1636   0.3383  -0.2491   0.00    0.0
2342 230579.000   44.399807191    8.937689671   103.5494   6  22   0.8482   0.5971   1.8604  -0.1588   0.3283  -0.2436   0.00    0.0
2342 230580.000   44.399807117    8.937689653   103.5473   6  22   0.8243   0.5803   1.8101  -0.1543   0.3191  -0.2385   0.00    0.0
2342 230581.000   44.399807077    8.937689668   103.5364   6  22   0.8024   0.5649   1.7638  -0.1503   0.3107  -0.2339   0.00    0.0
2342 230582.000   44.399807070    8.937689570   103.5318   6  22   0.7822   0.5506   1.7211  -0.1465   0.3029  -0.2297   0.00    0.0
2342 230583.000   44.399807050    8.937689557   103.5037   6  22   0.7634   0.5373   1.6816  -0.1431   0.2957  -0.2258   0.00    0.0
2342 230584.000   44.399806900    8.937689484   103.4795   6  22   0.7459   0.5250   1.6448  -0.1398   0.2890  -0.2221   0.00    0.0
2342 230585.000   44.399806706    8.937689345   103.4596   6  22   0.7296   0.5134   1.6104  -0.1368   0.2827  -0.2188   0.00    0.0
2342 230586.000   44.399806611    8.937689230   103.4621   6  22   0.7143   0.5026   1.5783  -0.1340   0.2768  -0.2156   0.00    0.0
2342 230587.000   44.399806556    8.937689094   103.4666   6  22   0.6999   0.4925   1.5481  -0.1313   0.2713  -0.2127   0.00    0.0
2342 230588.000   44.399806484    8.937688909   103.4691   6  22   0.6863   0.4829   1.5197  -0.1288   0.2660  -0.2100   0.00    0.0
2342 230589.000   44.399806386    8.937688704   103.4685   6  22   0.6736   0.4739   1.4929  -0.1264   0.2611  -0.2074   0.00    0.0
2342 230590.000   44.399806309    8.937688514   103.4777   6  22   0.6615   0.4653   1.4676  -0.1242   0.2565  -0.2050   0.00    0.0
2342 230591.000   44.399806204    8.937688352   103.4810   6  22   0.6500   0.4573   1.4437  -0.1221   0.2521  -0.2027   0.00    0.0
2342 230592.000   44.399806082    8.937688199   103.4830   6  22   0.6391   0.4496   1.4210  -0.1200   0.2479  -0.2005   0.00    0.0
2342 230593.000   44.399805990    8.937688083   103.4894   6  22   0.6288   0.4423   1.3994  -0.1181   0.2439  -0.1985   0.00    0.0
2342 230594.000   44.399805910    8.937687914   103.4935   6  22   0.6189   0.4353   1.3788  -0.1163   0.2401  -0.1965   0.00    0.0
2342 230595.000   44.399805820    8.937687804   103.5057   6  22   0.6095   0.4287   1.3592  -0.1146   0.2365  -0.1947   0.00    0.0
