%  GPST          latitude(deg) longitude(deg)  height(m)   Q  ns   sdn(m)   sde(m)   sdu(m)  sdne(m)  sdeu(m)  sdun(m) age(s)  ratio
2351 149756.000   44.399791644    8.937673281   106.9532   6   7  12.6124   7.5440  17.6429  -5.4427   5.5232   7.3894   0.00    0.0
2351 149757.000   44.399790172    8.937673219   106.5636   6   7   9.1194   5.4221  12.9142  -3.9187   4.0688   5.4640   0.00    0.0
2351 149758.000   44.399789364    8.937673081   106.3209   6   7   7.5033   4.4519  10.6749  -3.2191   3.3700   4.5316   0.00    0.0
2351 149759.000   44.399788765    8.937673247   106.2347   6   7   6.5232   3.8663   9.3041  -2.7963   2.9398   3.9560   0.00    0.0
2351 149760.000   44.399787946    8.937673473   106.1487   6   7   5.8480   3.4639   8.3551  -2.5056   2.6411   3.5555   0.00    0.0
2351 149761.000   44.399788008    8.937674134   106.1179   6   7   5.3466   3.1656   7.6483  -2.2900   2.4181   3.2564   0.00    0.0
2351 149762.000   44.399787678    8.937674947   106.0539   6   7   4.9554   2.9331   7.0956  -2.1220   2.2435   3.0219   0.00    0.0
2351 149763.000   44.399787363    8.937675561   105.9719   6   7   4.6390   2.7453   6.6481  -1.9862   2.1020   2.8318   0.00    0.0
2351 149764.000   44.399787282    8.937676016   105.9364   6   7   4.3764   2.5894   6.2762  -1.8735   1.9843   2.6736   0.00    0.0
2351 149765.000   44.399787627    8.937676435   105.9482   6   7   4.1538   2.4574   5.9608  -1.7781   1.8844   2.5393   0.00    0.0
2351 149766.000   44.399788017    8.937676750   105.9783   6   7   3.9620   2.3437   5.6889  -1.6959   1.7982   2.4233   0.00    0.0
2351 149767.000   44.399788363    8.937676852   106.0173   6   7   3.7945   2.2444   5.4513  -1.6241   1.7228   2.3220   0.00    0.0
2351 149768.000   44.399788681    8.937676897   106.0862   6   7   3.6465   2.1567   5.2414  -1.5607   1.6562   2.2324   0.00    0.0
2351 149769.000   44.399788847    8.937676872   106.0986   6   7   3.5146   2.0786   5.0543  -1.5042   1.5968   2.1524   0.00    0.0
2351 149770.000   44.399789110    8.937676886   106.1413   6   7   3.3960   2.0084   4.8860  -1.4534   1.5434   2.0805   0.00    0.0
2351 149771.000   44.399789271    8.937676908   106.1685   6   7   3.2886   1.9448   4.7336  -1.4075   1.4949   2.0154   0.00    0.0
2351 149772.000   44.399789400    8.937676900   106.2090   6   7   3.1908   1.8869   4.5949  -1.3656   1.4508   1.9560   0.00    0.0
2351 149773.000   44.399789651    8.937676792   106.2788   6   7   3.1012   1.8339   4.4677  -1.3273   1.4104   1.9015   0.00    0.0
2351 149774.000   44.399789864    8.937676697   106.3363   6   7   3.0188   1.7851   4.3507  -1.2920   1.3731   1.8514   0.00    0.0
2351 149775.000   44.399790116    8.937676492   106.3847   6   7   2.9425   1.7400   4.2426  -1.2594   1.3387   1.8051   0.00    0.0
2351 149776.000   44.399790356    8.937676312   106.4428   6   7   2.8718   1.6981   4.1422  -1.2291   1.3068   1.7621   0.00    0.0
2351 149777.000   44.399790742    8.937675996   106.5208   6   7   2.8059   1.6591   4.0487  -1.2009   1.2770   1.7220   0.00    0.0
2351 149778.000   44.399795269    8.937676329   106.8122   6  13   2.3398   1.4951   3.8178  -0.9109   1.1841   1.4729   0.00    0.0
2351 149779.000   44.399797648    8.937677261   106.9954   6  13   2.0533   1.3799   3.6314  -0.7359   1.0972   1.3101   0.00    0.0
2351 149780.000   44.399799551    8.937678193   107.1143   6  13   1.8530   1.2905   3.4741  -0.6162   1.0209   1.1912   0.00    0.0
2351 149781.000   44.399801115    8.937678961   107.2300   6  13   1.7025   1.2180   3.3381  -0.5284   0.9548   1.0989   0.00    0.0
2351 149782.000   44.399802556    8.937679546   107.3336   6  13   1.5841   1.1572   3.2186  -0.4610   0.8975   1.0243   0.00    0.0
2351 149783.000   44.399803700    8.937680048   107.4119   6  13   1.4876   1.1052   3.1122  -0.4073   0.8475   0.9624   0.00    0.0
2351 149784.000   44.399804845    8.937680480   107.4788   6  13   1.4071   1.0599   3.0166  -0.3635   0.8036   0.9099   0.00    0.0
2351 149785.000   44.399805700    8.937680823   107.5106   6  13   1.3385   1.0200   2.9299  -0.3270   0.7647   0.8647   0.00    0.0
2351 149786.000   44.399806450    8.937681154   107.5474   6  13   1.2791   0.9844   2.8508  -0.2961   0.7301   0.8252   0.00    0.0
2351 149787.000   44.399807113    8.937681506   107.5999   6  13   1.2271   0.9524   2.7782  -0.2694   0.6990   0.7903   0.00    0.0
2351 149788.000   44.399807716    8.937681869   107.6468   6  13   1.1810   0.9234   2.7112  -0.2462   0.6710   0.7593   0.00    0.0
2351 149789.000   44.399808318    8.937682111   107.7035   6  13   1.1397   0.8969   2.6490  -0.2257   0.6457   0.7313   0.00    0.0
2351 149790.000   44.399808831    8.937682373   107.7605   6  13   1.1026   0.8727   2.5912  -0.2076   0.6226   0.7061   0.00    0.0
2351 149791.000   44.399809203    8.937682556   107.7987   6  13   1.0688   0.8503   2.5372  -0.1913   0.6014   0.6831   0.00    0.0
2351 149792.000   44.399809559    8.937682668   107.8335   6  13   1.0380   0.8296   2.4867  -0.1765   0.5820   0.6622   0.00    0.0
2351 149793.000   44.399809786    8.937682815   107.8369   6  13   1.0097   0.8104   2.4391  -0.1631   0.5641   0.6429   0.00    0.0
2351 149794.000   44.399809984    8.937682975   107.8534   6  13   0.9837   0.7925   2.3944  -0.1509   0.5476   0.6251   0.00    0.0
2351 149795.000   44.399810308    8.937683021   107.8872   6  13   0.9595   0.7757   2.3521  -0.1396   0.5322   0.6086   0.00    0.0
2351 149796.000   44.399810653    8.937683025   107.9197   6  13   0.9371   0.7600   2.3121  -0.1291   0.5180   0.5932   0.00    0.0
2351 149797.000   44.399810934    8.937683021   107.9465   6  13   0.9161   0.7452   2.2741  -0.1193   0.5046   0.5789   0.00    0.0
2351 149798.000   44.399811170    8.937683009   107.9730   6  13   0.8966   0.7312   2.2381  -0.1102   0.4922   0.5656   0.00    0.0
2351 149799.000   44.399811342    8.937682984   107.9910   6  13   0.8782   0.7180   2.2038  -0.1015   0.4805   0.5530   0.00    0.0
2351 149800.000   44.399811480    8.937682907   107.9935   6  13   0.8609   0.7055   2.1711  -0.0933   0.4696   0.5412   0.00    0.0
2351 149801.000   44.399811630    8.937682767   107.9963   6  13   0.8446   0.6936   2.1398  -0.0855   0.4592   0.5301   0.00    0.0
2351 149802.000   44.399811752    8.937682618   107.9973   6  13   0.8292   0.6823   2.1100  -0.0779   0.4495   0.5196   0.00    0.0
2351 149803.000   44.399811845    8.937682506   108.0075   6  13   0.8146   0.6716   2.0814  -0.0706   0.4403   0.5097   0.00    0.0
2351 149804.000   44.399811989    8.937682423   108.0240   6  13   0.8007   0.6613   2.0540  -0.0634   0.4316   0.5003   0.00    0.0
2351 149805.000   44.399812170    8.937682342   108.0285   6  13   0.7876   0.6515   2.0277  -0.0562   0.4233   0.4913   0.00    0.0
2351 149806.000   44.399812343    8.937682332   108.0275   6  13   0.7750   0.6422   2.0025  -0.0489   0.4155   0.4828   0.00    0.0
2351 149807.000   44.399812532    8.937682273   108.0148   6  13   0.7631   0.6332   1.9782  -0.0413   0.4080   0.4747   0.00    0.0
2351 149808.000   44.399812679    8.937682232   108.0014   6  13   0.7517   0.6246   1.9548  -0.0332   0.4010   0.4670   0.00    0.0
2351 149809.000   44.399812790    8.937682248   107.9856   6  13   0.7407   0.6163   1.9323  -0.0236   0.3942   0.4596   0.00    0.0
2351 149810.000   44.399812905    8.937682240   107.9624   6  13   0.7303   0.6084   1.9105  -0.0081   0.3877   0.4525   0.00    0.0
2351 149811.000   44.399812991    8.937682221   107.9372   6  13   0.7203   0.6008   1.8896   0.0193   0.3816   0.4458   0.00    0.0
2351 149812.000   44.399813039    8.937682141   107.9118   6  13   0.7106   0.5934   1.8693   0.0277   0.3757   0.4393   0.00    0.0
2351 149813.000   44.399813051    8.937682015   107.8851   6  13   0.7014   0.5863   1.8497   0.0335   0.3700   0.4331   0.00    0.0
2351 149814.000   44.399813069    8.937681878   107.8610   6  13   0.6925   0.5795   1.8307   0.0380   0.3646   0.4271   0.00    0.0
2351 149815.000   44.399813094    8.937681760   107.8320   6  13   0.6839   0.5729   1.8124   0.0417   0.3594   0.4213   0.00    0.0
2351 149816.000   44.399813147    8.937681640   107.8064   6  13   0.6757   0.5665   1.7946   0.0447   0.3544   0.4158   0.00    0.0
2351 149817.000   44.399813146    8.937681554   107.7723   6  13   0.6677   0.5603   1.7773   0.0473   0.3496   0.4104   0.00    0.0
2351 149818.000   44.399813164    8.937681476   107.7419   6  13   0.6600   0.5543   1.7606   0.0495   0.3450   0.4053   0.00    0.0
2351 149819.000   44.399813150    8.937681370   107.7028   6  13   0.6526   0.5485   1.7444   0.0514   0.3406   0.4003   0.00    0.0
2351 149820.000   44.399813131    8.937681279   107.6641   6  13   0.6454   0.5429   1.7286   0.0530   0.3363   0.3955   0.00    0.0
2351 149821.000   44.399813107    8.937681181   107.6232   6  13   0.6384   0.5375   1.7133   0.0545   0.3322   0.3909   0.00    0.0
2351 149822.000   44.399813121    8.937681083   107.5929   6  13   0.6317   0.5322   1.6984   0.0558   0.3282   0.3864   0.00    0.0
2351 149823.000   44.399813159    8.937680988   107.5704   6  13   0.6252   0.5271   1.6839   0.0569   0.3243   0.3820   0.00    0.0
2351 149824.000   44.399813194    8.937680909   107.5441   6  13   0.6189   0.5221   1.6697   0.0580   0.3206   0.3778   0.00    0.0
2351 149825.000   44.399813219    8.937680843   107.5177   6  13   0.6127   0.5172   1.6560   0.0588   0.3170   0.3737   0.00    0.0
2351 149826.000   44.399813219    8.937680732   107.4916   6  13   0.6068   0.5125   1.6426   0.0596   0.3135   0.3698   0.00    0.0
2351 149827.000   44.399813206    8.937680630   107.4550   6  13   0.6010   0.5079   1.6296   0.0604   0.3102   0.3659   0.00    0.0
2351 149828.000   44.399813179    8.937680537   107.4162   6  13   0.5953   0.5035   1.6168   0.0610   0.3069   0.3622   0.00    0.0
2351 149829.000   44.399813156    8.937680457   107.3853   6  13   0.5899   0.4991   1.6044   0.0615   0.3037   0.3585   0.00    0.0
2351 149830.000   44.399813133    8.937680367   107.3532   6  13   0.5845   0.4949   1.5923   0.0620   0.3007   0.3550   0.00    0.0
2351 149831.000   44.399813141    8.937680282   107.3327   6  13   0.5794   0.4908   1.5805   0.0625   0.2977   0.3516   0.00    0.0
2351 149832.000   44.399813165    8.937680189   107.3084   6  13   0.5743   0.4867   1.5690   0.0629   0.2948   0.3482   0.00    0.0
2351 149833.000   44.399813197    8.937680116   107.2883   6  13   0.5694   0.4828   1.5577   0.0632   0.2920   0.3450   0.00    0.0
2351 149834.000   44.399813228    8.937680039   107.2697   6  13   0.5646   0.4790   1.5466   0.0635   0.2893   0.3418   0.00    0.0
2351 149835.000   44.399813283    8.937679973   107.2574   6  13   0.5599   0.4752   1.5359   0.0638   0.2866   0.3387   0.00    0.0
2351 149836.000   44.399813323    8.937679889   107.2427   6  13   0.5554   0.4716   1.5253   0.0640   0.2841   0.3357   0.00    0.0
2351 149837.000   44.399813373    8.937679817   107.2308   6  13   0.5509   0.4680   1.5150   0.0642   0.2815   0.3328   0.00    0.0
2351 149838.000   44.399813429    8.937679726   107.2242   6  13   0.5466   0.4645   1.5049   0.0644   0.2791   0.3299   0.00    0.0
2351 149839.000   44.399813498    8.937679624   107.2159   6  13   0.5423   0.4611   1.4951   0.0645   0.2767   0.3271   0.00    0.0
2351 149840.000   44.399813565    8.937679528   107.2114   6  13   0.5382   0.4577   1.4854   0.0646   0.2744   0.3244   0.00    0.0
2351 149841.000   44.399813607    8.937679416   107.2072   6  13   0.5341   0.4545   1.4759   0.0647   0.2721   0.3217   0.00    0.0
2351 149842.000   44.399813648    8.937679310   107.2021   6  13   0.5302   0.4513   1.4666   0.0648   0.2699   0.3191   0.00    0.0
2351 149843.000   44.399813683    8.937679210   107.1998   6  13   0.5263   0.4481   1.4575   0.0649   0.2678   0.3166   0.00    0.0
2351 149844.000   44.399813696    8.937679098   107.2047   6  13   0.5225   0.4451   1.4486   0.0649   0.2657   0.3141   0.00    0.0
2351 149845.000   44.399813695    8.937679010   107.2129   6  13   0.5188   0.4420   1.4399   0.0649   0.2637   0.3116   0.00    0.0
2351 149846.000   44.399813743    8.937678933   107.2228   6  13   0.5151   0.4391   1.4313   0.0649   0.2617   0.3092   0.00    0.0
2351 149847.000   44.399813804    8.937678850   107.2286   6  13   0.5116   0.4362   1.4229   0.0649   0.2597   0.3069   0.00    0.0
2351 149848.000   44.399813856    8.937678797   107.2301   6  13   0.5081   0.4334   1.4146   0.0649   0.2578   0.3046   0.00    0.0
2351 149849.000   44.399813910    8.937678754   107.2315   6  13   0.5047   0.4306   1.4065   0.0649   0.2559   0.3024   0.00    0.0
2351 149850.000   44.399813980    8.937678715   107.2292   6  13   0.5013   0.4279   1.3986   0.0649   0.2541   0.3002   0.00    0.0
2351 149851.000   44.399814043    8.937678663   107.2302   6  13   0.4980   0.4252   1.3908   0.0648   0.2523   0.2980   0.00    0.0
2351 149852.000   44.399814114    8.937678609   107.2326   6  13   0.4948   0.4226   1.3831   0.0648   0.2506   0.2959   0.00    0.0
2351 149853.000   44.399814184    8.937678563   107.2345   6  13   0.4917   0.4200   1.3756   0.0647   0.2489   0.2939   0.00    0.0
2351 149854.000   44.399814263    8.937678520   107.2376   6  13   0.4886   0.4175   1.3682   0.0646   0.2472   0.2918   0.00    0.0
2351 149855.000   44.399814349    8.937678486   107.2379   6  13   0.4855   0.4150   1.3609   0.0645   0.2456   0.2898   0.00    0.0
2351 149856.000   44.399814408    8.937678478   107.2383   6  13   0.4825   0.4125   1.3538   0.0645   0.2440   0.2879   0.00    0.0
2351 149857.000   44.399814436    8.937678447   107.2403   6  13   0.4796   0.4101   1.3468   0.0644   0.2424   0.2860   0.00    0.0
2351 149858.000   44.399814470    8.937678414   107.2403   6  13   0.4767   0.4078   1.3398   0.0643   0.2409   0.2841   0.00    0.0
2351 149859.000   44.399814489    8.937678375   107.2477   6  13   0.4739   0.4054   1.3331   0.0642   0.2394   0.2822   0.00    0.0
2351 149860.000   44.399814507    8.937678366   107.2543   6  13   0.4711   0.4032   1.3264   0.0641   0.2379   0.2804   0.00    0.0
2351 149861.000   44.399814536    8.937678365   107.2649   6  13   0.4684   0.4009   1.3198   0.0639   0.2365   0.2786   0.00    0.0
2351 149862.000   44.399814568    8.937678331   107.2743   6  13   0.4657   0.3987   1.3133   0.0638   0.2351   0.2769   0.00    0.0
2351 149863.000   44.399814605    8.937678314   107.2801   6  13   0.4631   0.3966   1.3070   0.0637   0.2337   0.2752   0.00    0.0
2351 149864.000   44.399814644    8.937678320   107.2878   6  13   0.4605   0.3944   1.3007   0.0636   0.2323   0.2735   0.00    0.0
2351 149865.000   44.399814675    8.937678294   107.2942   6  13   0.4579   0.3923   1.2945   0.0635   0.2310   0.2718   0.00    0.0
2351 149866.000   44.399814688    8.937678263   107.3012   6  13   0.4554   0.3903   1.2885   0.0633   0.2297   0.2702   0.00    0.0
2351 149867.000   44.399814703    8.937678229   107.3080   6  13   0.4529   0.3882   1.2825   0.0632   0.2284   0.2686   0.00    0.0
2351 149868.000   44.399814722    8.937678169   107.3190   6  13   0.4505   0.3862   1.2766   0.0631   0.2271   0.2670   0.00    0.0
2351 149869.000   44.399814724    8.937678121   107.3272   6  13   0.4481   0.3843   1.2708   0.0629   0.2259   0.2654   0.00    0.0
2351 149870.000   44.399814722    8.937678077   107.3330   6  13   0.4458   0.3823   1.2651   0.0628   0.2247   0.2639   0.00    0.0
2351 149871.000   44.399814730    8.937678039   107.3397   6  13   0.4434   0.3804   1.2594   0.0627   0.2235   0.2624   0.00    0.0
2351 149872.000   44.399814705    8.937678006   107.3414   6  13   0.4412   0.3785   1.2539   0.0625   0.2223   0.2609   0.00    0.0
2351 149873.000   44.399814676    8.937677981   107.3410   6  13   0.4389   0.3767   1.2484   0.0624   0.2211   0.2594   0.00    0.0
2351 149874.000   44.399814633    8.937677937   107.3417   6  13   0.4367   0.3748   1.2430   0.0622   0.2200   0.2580   0.00    0.0
2351 149875.000   44.399814586    8.937677907   107.3413   6  13   0.4345   0.3730   1.2377   0.0621   0.2189   0.2566   0.00    0.0
2351 149876.000   44.399814527    8.937677872   107.3416   6  13   0.4324   0.3713   1.2325   0.0619   0.2178   0.2552   0.00    0.0
2351 149877.000   44.399814488    8.937677839   107.3393   6  13   0.4303   0.3695   1.2273   0.0618   0.2167   0.2538   0.00    0.0
2351 149878.000   44.399814445    8.937677800   107.3373   6  13   0.4282   0.3678   1.2222   0.0616   0.2156   0.2524   0.00    0.0
2351 149879.000   44.399814412    8.937677772   107.3348   6  13   0.4261   0.3661   1.2171   0.0615   0.2146   0.2511   0.00    0.0
2351 149880.000   44.399814390    8.937677744   107.3315   6  13   0.4241   0.3644   1.2122   0.0613   0.2136   0.2498   0.00    0.0
2351 149881.000   44.399814377    8.937677722   107.3303   6  13   0.4221   0.3627   1.2073   0.0612   0.2126   0.2485   0.00    0.0
2351 149882.000   44.399814343    8.937677690   107.3254   6  13   0.4201   0.3611   1.2025   0.0610   0.2116   0.2472   0.00    0.0
2351 149883.000   44.399814304    8.937677660   107.3213   6  13   0.4182   0.3595   1.1977   0.0609   0.2106   0.2459   0.00    0.0
2351 149884.000   44.399814267    8.937677631   107.3154   6  13   0.4163   0.3579   1.1930   0.0607   0.2096   0.2447   0.00    0.0
2351 149885.000   44.399814234    8.937677589   107.3123   6  13   0.4144   0.3563   1.1883   0.0606   0.2087   0.2435   0.00    0.0
2351 149886.000   44.399814195    8.937677543   107.3089   6  13   0.4125   0.3548   1.1838   0.0604   0.2077   0.2423   0.00    0.0
2351 149887.000   44.399814158    8.937677502   107.3021   6  13   0.4107   0.3532   1.1792   0.0603   0.2068   0.2411   0.00    0.0
2351 149888.000   44.399814117    8.937677470   107.2926   6  13   0.4088   0.3517   1.1748   0.0601   0.2059   0.2399   0.00    0.0
2351 149889.000   44.399814081    8.937677431   107.2792   6  13   0.4071   0.3502   1.1703   0.0600   0.2050   0.2387   0.00    0.0
2351 149890.000   44.399814049    8.937677390   107.2671   6  13   0.4053   0.3488   1.1660   0.0598   0.2041   0.2376   0.00    0.0
2351 149891.000   44.399814022    8.937677351   107.2551   6  13   0.4035   0.3473   1.1617   0.0596   0.2032   0.2364   0.00    0.0
2351 149892.000   44.399813988    8.937677332   107.2450   6  13   0.4018   0.3459   1.1574   0.0595   0.2024   0.2353   0.00    0.0
2351 149893.000   44.399813956    8.937677311   107.2349   6  13   0.4001   0.3445   1.1532   0.0593   0.2015   0.2342   0.00    0.0
2351 149894.000   44.399813949    8.937677292   107.2272   6  13   0.3984   0.3431   1.1491   0.0592   0.2007   0.2331   0.00    0.0
2351 149895.000   44.399813936    8.937677266   107.2206   6  13   0.3968   0.3417   1.1450   0.0590   0.1999   0.2320   0.00    0.0
2351 149896.000   44.399813936    8.937677237   107.2198   6  13   0.3951   0.3403   1.1409   0.0589   0.1991   0.2310   0.00    0.0
2351 149897.000   44.399813933    8.937677206   107.2182   6  13   0.3935   0.3390   1.1369   0.0587   0.1983   0.2299   0.00    0.0
2351 149898.000   44.399813942    8.937677176   107.2159   6  13   0.3919   0.3376   1.1329   0.0586   0.1975   0.2289   0.00    0.0
2351 149899.000   44.399813952    8.937677145   107.2140   6  13   0.3903   0.3363   1.1290   0.0584   0.1967   0.2278   0.00    0.0
2351 149900.000   44.399813959    8.937677111   107.2147   6  13   0.3888   0.3350   1.1252   0.0583   0.1960   0.2268   0.00    0.0
2351 149901.000   44.399813951    8.937677074   107.2148   6  13   0.3872   0.3337   1.1213   0.0581   0.1952   0.2258   0.00    0.0
2351 149902.000   44.399813948    8.937677044   107.2154   6  13   0.3857   0.3324   1.1176   0.0580   0.1945   0.2248   0.00    0.0
2351 149903.000   44.399813935    8.937677010   107.2155   6  13   0.3842   0.3312   1.1138   0.0578   0.1937   0.2239   0.00    0.0
2351 149904.000   44.399813919    8.937676960   107.2129   6  13   0.3827   0.3299   1.1101   0.0577   0.1930   0.2229   0.00    0.0
2351 149905.000   44.399813901    8.937676916   107.2074   6  13   0.3812   0.3287   1.1065   0.0575   0.1923   0.2219   0.00    0.0
2351 149906.000   44.399813879    8.937676848   107.2015   6  13   0.3798   0.3275   1.1028   0.0574   0.1916   0.2210   0.00    0.0
2351 149907.000   44.399813865    8.937676777   107.2008   6  13   0.3783   0.3263   1.0993   0.0572   0.1909   0.2200   0.00    0.0
2351 149908.000   44.399813852    8.937676697   107.1971   6  13   0.3769   0.3251   1.0957   0.0571   0.1902   0.2191   0.00    0.0
2351 149909.000   44.399813837    8.937676632   107.1925   6  13   0.3755   0.3239   1.0922   0.0569   0.1895   0.2182   0.00    0.0
2351 149910.000   44.399813807    8.937676587   107.1869   6  13   0.3741   0.3227   1.0888   0.0568   0.1888   0.2173   0.00    0.0
2351 149911.000   44.399813788    8.937676536   107.1827   6  13   0.3727   0.3216   1.0853   0.0566   0.1882   0.2164   0.00    0.0
2351 149912.000   44.399813781    8.937676491   107.1789   6  13   0.3714   0.3205   1.0819   0.0565   0.1875   0.2155   0.00    0.0
2351 149913.000   44.399813791    8.937676446   107.1751   6  13   0.3700   0.3193   1.0786   0.0563   0.1869   0.2146   0.00    0.0
2351 149914.000   44.399813817    8.937676390   107.1712   6  13   0.3687   0.3182   1.0753   0.0562   0.1862   0.2138   0.00    0.0
2351 149915.000   44.399813837    8.937676347   107.1662   6  13   0.3674   0.3171   1.0720   0.0560   0.1856   0.2129   0.00    0.0
2351 149916.000   44.399813863    8.937676305   107.1590   6  13   0.3661   0.3160   1.0687   0.0559   0.1850   0.2121   0.00    0.0
2351 149917.000   44.399813896    8.937676264   107.1513   6  13   0.3648   0.3149   1.0655   0.0557   0.1843   0.2112   0.00    0.0
2351 149918.000   44.399813917    8.937676239   107.1432   6  13   0.3635   0.3139   1.0623   0.0556   0.1837   0.2104   0.00    0.0
2351 149919.000   44.399813950    8.937676215   107.1361   6  13   0.3622   0.3128   1.0592   0.0554   0.1831   0.2096   0.00    0.0
2351 149920.000   44.399813972    8.937676209   107.1290   6  13   0.3610   0.3117   1.0560   0.0553   0.1825   0.2087   0.00    0.0
2351 149921.000   44.399814015    8.937676215   107.1222   6  13   0.3597   0.3107   1.0529   0.0552   0.1819   0.2079   0.00    0.0
2351 149922.000   44.399814069    8.937676218   107.1191   6  13   0.3585   0.3097   1.0499   0.0550   0.1814   0.2071   0.00    0.0
2351 149923.000   44.399814128    8.937676217   107.1165   6  13   0.3573   0.3087   1.0469   0.0549   0.1808   0.2064   0.00    0.0
2351 149924.000   44.399814175    8.937676221   107.1131   6  13   0.3561   0.3076   1.0439   0.0547   0.1802   0.2056   0.00    0.0
2351 149925.000   44.399814232    8.937676216   107.1098   6  13   0.3549   0.3066   1.0409   0.0546   0.1796   0.2048   0.00    0.0
2351 149926.000   44.399814291    8.937676207   107.1077   6  13   0.3537   0.3057   1.0379   0.0545   0.1791   0.2040   0.00    0.0
2351 149927.000   44.399814353    8.937676190   107.1089   6  13   0.3526   0.3047   1.0350   0.0543   0.1785   0.2033   0.00    0.0
2351 149928.000   44.399814401    8.937676174   107.1056   6  13   0.3514   0.3037   1.0321   0.0542   0.1780   0.2025   0.00    0.0
2351 149929.000   44.399814452    8.937676153   107.1025   6  13   0.3503   0.3027   1.0293   0.0540   0.1775   0.2018   0.00    0.0
2351 149930.000   44.399814517    8.937676126   107.1035   6  13   0.3491   0.3018   1.0264   0.0539   0.1769   0.2010   0.00    0.0
2351 149931.000   44.399814589    8.937676097   107.1046   6  13   0.3480   0.3008   1.0236   0.0538   0.1764   0.2003   0.00    0.0
2351 149932.000   44.399814655    8.937676078   107.1048   6  13   0.3469   0.2999   1.0208   0.0536   0.1759   0.1996   0.00    0.0
2351 149933.000   44.399814720    8.937676062   107.1047   6  13   0.3458   0.2990   1.0181   0.0535   0.1754   0.1988   0.00    0.0
2351 149934.000   44.399814794    8.937676056   107.1061   6  13   0.3447   0.2981   1.0153   0.0534   0.1748   0.1981   0.00    0.0
2351 149935.000   44.399814873    8.937676048   107.1108   6  13   0.3436   0.2972   1.0126   0.0532   0.1743   0.1974   0.00    0.0
2351 149936.000   44.399814968    8.937676042   107.1159   6  13   0.3426   0.2963   1.0099   0.0531   0.1738   0.1967   0.00    0.0
2351 149937.000   44.399815068    8.937676054   107.1234   6  13   0.3415   0.2954   1.0073   0.0530   0.1733   0.1960   0.00    0.0
2351 149938.000   44.399815175    8.937676049   107.1301   6  13   0.3405   0.2945   1.0047   0.0528   0.1728   0.1954   0.00    0.0
2351 149939.000   44.399815282    8.937676051   107.1348   6  13   0.3394   0.2936   1.0020   0.0527   0.1724   0.1947   0.00    0.0
2351 149940.000   44.399815363    8.937676052   107.1381   6  13   0.3384   0.2927   0.9994   0.0526   0.1719   0.1940   0.00    0.0
2351 149941.000   44.399815436    8.937676046   107.1409   6  13   0.3374   0.2919   0.9969   0.0524   0.1714   0.1933   0.00    0.0
2351 149942.000   44.399815504    8.937676040   107.1431   6  13   0.3363   0.2910   0.9943   0.0523   0.1709   0.1927   0.00    0.0
2351 149943.000   44.399815559    8.937676041   107.1414   6  13   0.3353   0.2902   0.9918   0.0522   0.1705   0.1920   0.00    0.0
2351 149944.000   44.399815613    8.937676038   107.1412   6  13   0.3343   0.2893   0.9893   0.0521   0.1700   0.1914   0.00    0.0
2351 149945.000   44.399815659    8.937676039   107.1408   6  13   0.3334   0.2885   0.9868   0.0519   0.1696   0.1907   0.00    0.0
2351 149946.000   44.399815699    8.937676048   107.1414   6  13   0.3324   0.2877   0.9844   0.0518   0.1691   0.1901   0.00    0.0
2351 149947.000   44.399815738    8.937676055   107.1439   6  13   0.3314   0.2869   0.9819   0.0517   0.1687   0.1894   0.00    0.0
2351 149948.000   44.399815767    8.937676064   107.1454   6  13   0.3305   0.2860   0.9795   0.0516   0.1682   0.1888   0.00    0.0
2351 149949.000   44.399815792    8.937676071   107.1445   6  13   0.3295   0.2852   0.9771   0.0514   0.1678   0.1882   0.00    0.0
2351 149950.000   44.399815808    8.937676082   107.1431   6  13   0.3286   0.2844   0.9747   0.0513   0.1673   0.1876   0.00    0.0
2351 149951.000   44.399815820    8.937676106   107.1432   6  13   0.3276   0.2836   0.9724   0.0512   0.1669   0.1869   0.00    0.0
2351 149952.000   44.399815829    8.937676127   107.1427   6  13   0.3267   0.2829   0.9701   0.0511   0.1665   0.1863   0.00    0.0
2351 149953.000   44.399815832    8.937676155   107.1409   6  13   0.3258   0.2821   0.9677   0.0509   0.1661   0.1857   0.00    0.0
2351 149954.000   44.399815839    8.937676175   107.1404   6  13   0.3249   0.2813   0.9654   0.0508   0.1656   0.1851   0.00    0.0
2351 149955.000   44.399815859    8.937676182   107.1408   6  13   0.3239   0.2806   0.9632   0.0507   0.1652   0.1845   0.00    0.0
2351 149956.000   44.399815873    8.937676189   107.1391   6  13   0.3230   0.2798   0.9609   0.0506   0.1648   0.1839   0.00    0.0
2351 149957.000   44.399815881    8.937676177   107.1391   6  13   0.3222   0.2790   0.9586   0.0504   0.1644   0.1834   0.00    0.0
2351 149958.000   44.399815895    8.937676181   107.1420   6  13   0.3213   0.2783   0.9564   0.0503   0.1640   0.1828   0.00    0.0
2351 149959.000   44.399815913    8.937676205   107.1477   6  13   0.3204   0.2776   0.9542   0.0502   0.1636   0.1822   0.00    0.0
2351 149960.000   44.399815944    8.937676235   107.1545   6  13   0.3195   0.2768   0.9520   0.0501   0.1632   0.1816   0.00    0.0
2351 149961.000   44.399815973    8.937676257   107.1616   6  13   0.3187   0.2761   0.9498   0.0500   0.1628   0.1811   0.00    0.0
2351 149962.000   44.399815999    8.937676264   107.1669   6  13   0.3178   0.2754   0.9477   0.0499   0.1624   0.1805   0.00    0.0
2351 149963.000   44.399816019    8.937676258   107.1731   6  13   0.3170   0.2746   0.9455   0.0497   0.1620   0.1799   0.00    0.0
2351 149964.000   44.399816033    8.937676245   107.1769   6  13   0.3161   0.2739   0.9434   0.0496   0.1616   0.1794   0.00    0.0
2351 149965.000   44.399816046    8.937676247   107.1805   6  13   0.3153   0.2732   0.9413   0.0495   0.1613   0.1788   0.00    0.0
2351 149966.000   44.399816055    8.937676233   107.1837   6  13   0.3145   0.2725   0.9392   0.0494   0.1609   0.1783   0.00    0.0
2351 149967.000   44.399816058    8.937676217   107.1869   6  13   0.3136   0.2718   0.9371   0.0493   0.1605   0.1777   0.00    0.0
2351 149968.000   44.399816057    8.937676189   107.1891   6  13   0.3128   0.2711   0.9351   0.0492   0.1601   0.1772   0.00    0.0
2351 149969.000   44.399816059    8.937676162   107.1912   6  13   0.3120   0.2705   0.9330   0.0490   0.1598   0.1767   0.00    0.0
2351 149970.000   44.399816059    8.937676136   107.1928   6  13   0.3112   0.2698   0.9310   0.0489   0.1594   0.1761   0.00    0.0
2351 149971.000   44.399816056    8.937676120   107.1912   6  13   0.3104   0.2691   0.9290   0.0488   0.1590   0.1756   0.00    0.0
2351 149972.000   44.399816056    8.937676100   107.1896   6  13   0.3096   0.2684   0.9270   0.0487   0.1587   0.1751   0.00    0.0
2351 149973.000   44.399816057    8.937676080   107.1881   6  13   0.3088   0.2678   0.9250   0.0486   0.1583   0.1746   0.00    0.0
2351 149974.000   44.399816066    8.937676066   107.1869   6  13   0.3080   0.2671   0.9230   0.0485   0.1580   0.1741   0.00    0.0
2351 149975.000   44.399816074    8.937676052   107.1889   6  13   0.3073   0.2664   0.9211   0.0484   0.1576   0.1735   0.00    0.0
2351 149976.000   44.399816075    8.937676022   107.1911   6  13   0.3065   0.2658   0.9191   0.0483   0.1573   0.1730   0.00    0.0
2351 149977.000   44.399816084    8.937675992   107.1948   6  13   0.3057   0.2652   0.9172   0.0482   0.1569   0.1725   0.00    0.0
2351 149978.000   44.399816099    8.937675964   107.1954   6  13   0.3050   0.2645   0.9153   0.0480   0.1566   0.1720   0.00    0.0
2351 149979.000   44.399816125    8.937675935   107.1962   6  13   0.3042   0.2639   0.9134   0.0479   0.1563   0.1715   0.00    0.0
2351 149980.000   44.399816146    8.937675896   107.1943   6  13   0.3035   0.2632   0.9115   0.0478   0.1559   0.1710   0.00    0.0
2351 149981.000   44.399816167    8.937675856   107.1909   6  13   0.3027   0.2626   0.9096   0.0477   0.1556   0.1705   0.00    0.0
2351 149982.000   44.399816193    8.937675819   107.1873   6  13   0.3020   0.2620   0.9078   0.0476   0.1553   0.1701   0.00    0.0
2351 149983.000   44.399816231    8.937675781   107.1843   6  13   0.3013   0.2614   0.9059   0.0475   0.1549   0.1696   0.00    0.0
2351 149984.000   44.399816266    8.937675738   107.1813   6  13   0.3006   0.2608   0.9041   0.0474   0.1546   0.1691   0.00    0.0
2351 149985.000   44.399816311    8.937675684   107.1776   6  13   0.2998   0.2601   0.9023   0.0473   0.1543   0.1686   0.00    0.0
2351 149986.000   44.399816354    8.937675631   107.1743   6  13   0.2991   0.2595   0.9005   0.0472   0.1540   0.1681   0.00    0.0
2351 149987.000   44.399816409    8.937675576   107.1732   6  13   0.2984   0.2589   0.8987   0.0471   0.1537   0.1677   0.00    0.0
2351 149988.000   44.399816465    8.937675526   107.1717   6  13   0.2977   0.2583   0.8969   0.0470   0.1533   0.1672   0.00    0.0
2351 149989.000   44.399816515    8.937675480   107.1687   6  13   0.2970   0.2577   0.8951   0.0469   0.1530   0.1667   0.00    0.0
2351 149990.000   44.399816562    8.937675445   107.1672   6  13   0.2963   0.2572   0.8934   0.0468   0.1527   0.1663   0.00    0.0
2351 149991.000   44.399816617    8.937675394   107.1663   6  13   0.2956   0.2566   0.8916   0.0467   0.1524   0.1658   0.00    0.0
2351 149992.000   44.399816665    8.937675341   107.1636   6  13   0.2949   0.2560   0.8899   0.0466   0.1521   0.1654   0.00    0.0
2351 149993.000   44.399816707    8.937675286   107.1601   6  13   0.2943   0.2554   0.8882   0.0465   0.1518   0.1649   0.00    0.0
2351 149994.000   44.399816750    8.937675221   107.1568   6  13   0.2936   0.2548   0.8864   0.0464   0.1515   0.1645   0.00    0.0
2351 149995.000   44.399816796    8.937675167   107.1544   6  13   0.2929   0.2543   0.8847   0.0463   0.1512   0.1640   0.00    0.0
2351 149996.000   44.399816836    8.937675124   107.1554   6  13   0.2922   0.2537   0.8830   0.0462   0.1509   0.1636   0.00    0.0
2351 149997.000   44.399816872    8.937675093   107.1564   6  13   0.2916   0.2531   0.8814   0.0461   0.1506   0.1631   0.00    0.0
2351 149998.000   44.399816915    8.937675057   107.1569   6  13   0.2909   0.2526   0.8797   0.0460   0.1503   0.1627   0.00    0.0
2351 149999.000   44.399816947    8.937675022   107.1552   6  13   0.2903   0.2520   0.8780   0.0459   0.1500   0.1623   0.00    0.0
2351 150000.000   44.399816974    8.937674990   107.1567   6  13   0.2896   0.2515   0.8764   0.0458   0.1497   0.1618   0.00    0.0
2351 150001.000   44.399817008    8.937674975   107.1603   6  13   0.2890   0.2509   0.8748   0.0457   0.1495   0.1614   0.00    0.0
2351 150002.000   44.399817045    8.937674955   107.1613   6  13   0.2883   0.2504   0.8731   0.0456   0.1492   0.1610   0.00    0.0
2351 150003.000   44.399817087    8.937674935   107.1625   6  13   0.2877   0.2498   0.8715   0.0455   0.1489   0.1605   0.00    0.0
2351 150004.000   44.399817129    8.937674908   107.1626   6  13   0.2871   0.2493   0.8699   0.0454   0.1486   0.1601   0.00    0.0
2351 150005.000   44.399817169    8.937674875   107.1629   6  13   0.2864   0.2488   0.8683   0.0453   0.1483   0.1597   0.00    0.0
2351 150006.000   44.399817214    8.937674851   107.1633   6  13   0.2858   0.2482   0.8667   0.0452   0.1481   0.1593   0.00    0.0
2351 150007.000   44.399817253    8.937674832   107.1640   6  13   0.2852   0.2477   0.8652   0.0451   0.1478   0.1589   0.00    0.0
2351 150008.000   44.399817285    8.937674814   107.1642   6  13   0.2846   0.2472   0.8636   0.0450   0.1475   0.1584   0.00    0.0
2351 150009.000   44.399817326    8.937674803   107.1669   6  13   0.2840   0.2467   0.8621   0.0449   0.1472   0.1580   0.00    0.0
2351 150010.000   44.399817365    8.937674785   107.1691   6  13   0.2834   0.2462   0.8605   0.0448   0.1470   0.1576   0.00    0.0
2351 150011.000   44.399817405    8.937674763   107.1740   6  13   0.2828   0.2456   0.8590   0.0447   0.1467   0.1572   0.00    0.0
2351 150012.000   44.399817441    8.937674735   107.1762   6  13   0.2822   0.2451   0.8574   0.0446   0.1464   0.1568   0.00    0.0
2351 150013.000   44.399817472    8.937674716   107.1796   6  13   0.2816   0.2446   0.8559   0.0445   0.1462   0.1564   0.00    0.0
2351 150014.000   44.399817504    8.937674701   107.1824   6  13   0.2810   0.2441   0.8544   0.0444   0.1459   0.1560   0.00    0.0
2351 150015.000   44.399817539    8.937674692   107.1857   6  13   0.2804   0.2436   0.8529   0.0443   0.1457   0.1556   0.00    0.0
2351 150016.000   44.399817568    8.937674683   107.1878   6  13   0.2798   0.2431   0.8514   0.0443   0.1454   0.1552   0.00    0.0
2351 150017.000   44.399817595    8.937674670   107.1872   6  13   0.2792   0.2426   0.8500   0.0442   0.1451   0.1548   0.00    0.0
2351 150018.000   44.399817617    8.937674658   107.1870   6  13   0.2786   0.2421   0.8485   0.0441   0.1449   0.1544   0.00    0.0
2351 150019.000   44.399817631    8.937674651   107.1863   6  13   0.2781   0.2417   0.8470   0.0440   0.1446   0.1541   0.00    0.0
2351 150020.000   44.399817646    8.937674646   107.1845   6  13   0.2775   0.2412   0.8456   0.0439   0.1444   0.1537   0.00    0.0
2351 150021.000   44.399817667    8.937674651   107.1826   6  13   0.2769   0.2407   0.8441   0.0438   0.1441   0.1533   0.00    0.0
2351 150022.000   44.399817687    8.937674655   107.1820   6  13   0.2763   0.2402   0.8427   0.0437   0.1439   0.1529   0.00    0.0
2351 150023.000   44.399817696    8.937674656   107.1811   6  13   0.2758   0.2397   0.8413   0.0436   0.1436   0.1525   0.00    0.0
2351 150024.000   44.399817703    8.937674660   107.1804   6  13   0.2752   0.2392   0.8398   0.0435   0.1434   0.1522   0.00    0.0
2351 150025.000   44.399817711    8.937674670   107.1812   6  13   0.2747   0.2388   0.8384   0.0434   0.1432   0.1518   0.00    0.0
2351 150026.000   44.399817721    8.937674673   107.1820   6  13   0.2741   0.2383   0.8370   0.0434   0.1429   0.1514   0.00    0.0
2351 150027.000   44.399817728    8.937674684   107.1816   6  13   0.2736   0.2378   0.8356   0.0433   0.1427   0.1510   0.00    0.0
2351 150028.000   44.399817731    8.937674688   107.1798   6  13   0.2730   0.2374   0.8343   0.0432   0.1424   0.1507   0.00    0.0
2351 150029.000   44.399817735    8.937674702   107.1798   6  13   0.2725   0.2369   0.8329   0.0431   0.1422   0.1503   0.00    0.0
2351 150030.000   44.399817741    8.937674720   107.1814   6  13   0.2719   0.2365   0.8315   0.0430   0.1420   0.1499   0.00    0.0
2351 150031.000   44.399817751    8.937674727   107.1831   6  13   0.2714   0.2360   0.8301   0.0429   0.1417   0.1496   0.00    0.0
2351 150032.000   44.399817760    8.937674731   107.1845   6  13   0.2709   0.2356   0.8288   0.0428   0.1415   0.1492   0.00    0.0
2351 150033.000   44.399817761    8.937674743   107.1844   6  13   0.2704   0.2351   0.8274   0.0427   0.1413   0.1489   0.00    0.0
2351 150034.000   44.399817761    8.937674757   107.1846   6  13   0.2698   0.2347   0.8261   0.0427   0.1410   0.1485   0.00    0.0
2351 150035.000   44.399817758    8.937674765   107.1843   6  13   0.2693   0.2342   0.8248   0.0426   0.1408   0.1481   0.00    0.0
2351 150036.000   44.399817753    8.937674775   107.1846   6  13   0.2688   0.2338   0.8234   0.0425   0.1406   0.1478   0.00    0.0
2351 150037.000   44.399817745    8.937674787   107.1846   6  13   0.2683   0.2333   0.8221   0.0424   0.1404   0.1474   0.00    0.0
2351 150038.000   44.399817735    8.937674797   107.1841   6  13   0.2678   0.2329   0.8208   0.0423   0.1401   0.1471   0.00    0.0
2351 150039.000   44.399817726    8.937674805   107.1836   6  13   0.2672   0.2325   0.8195   0.0422   0.1399   0.1467   0.00    0.0
2351 150040.000   44.399817718    8.937674820   107.1828   6  13   0.2667   0.2320   0.8182   0.0422   0.1397   0.1464   0.00    0.0
2351 150041.000   44.399817713    8.937674827   107.1823   6  13   0.2662   0.2316   0.8169   0.0421   0.1395   0.1460   0.00    0.0
2351 150042.000   44.399817700    8.937674846   107.1817   6  13   0.2657   0.2312   0.8157   0.0420   0.1393   0.1457   0.00    0.0
2351 150043.000   44.399817684    8.937674870   107.1798   6  13   0.2652   0.2307   0.8144   0.0419   0.1390   0.1454   0.00    0.0
2351 150044.000   44.399817664    8.937674886   107.1780   6  13   0.2647   0.2303   0.8131   0.0418   0.1388   0.1450   0.00    0.0
2351 150045.000   44.399817645    8.937674904   107.1784   6  13   0.2642   0.2299   0.8119   0.0418   0.1386   0.1447   0.00    0.0
2351 150046.000   44.399817619    8.937674917   107.1762   6  13   0.2637   0.2295   0.8106   0.0417   0.1384   0.1443   0.00    0.0
2351 150047.000   44.399817586    8.937674935   107.1742   6  13   0.2632   0.2291   0.8094   0.0416   0.1382   0.1440   0.00    0.0
2351 150048.000   44.399817559    8.937674956   107.1737   6  13   0.2628   0.2286   0.8081   0.0415   0.1380   0.1437   0.00    0.0
2351 150049.000   44.399817533    8.937674973   107.1736   6  13   0.2623   0.2282   0.8069   0.0414   0.1378   0.1434   0.00    0.0
2351 150050.000   44.399817507    8.937674987   107.1745   6  13   0.2618   0.2278   0.8057   0.0413   0.1376   0.1430   0.00    0.0
2351 150051.000   44.399817484    8.937674999   107.1747   6  13   0.2613   0.2274   0.8044   0.0413   0.1374   0.1427   0.00    0.0
2351 150052.000   44.399817468    8.937675004   107.1742   6  13   0.2608   0.2270   0.8032   0.0412   0.1371   0.1424   0.00    0.0
2351 150053.000   44.399817447    8.937675007   107.1735   6  13   0.2604   0.2266   0.8020   0.0411   0.1369   0.1420   0.00    0.0
2351 150054.000   44.399817424    8.937675012   107.1751   6  13   0.2599   0.2262   0.8008   0.0410   0.1367   0.1417   0.00    0.0
2351 150055.000   44.399817402    8.937675014   107.1751   6  13   0.2594   0.2258   0.7996   0.0410   0.1365   0.1414   0.00    0.0
2351 150056.000   44.399817380    8.937675019   107.1749   6  13   0.2590   0.2254   0.7984   0.0409   0.1363   0.1411   0.00    0.0
2351 150057.000   44.399817355    8.937675029   107.1735   6  13   0.2585   0.2250   0.7972   0.0408   0.1361   0.1408   0.00    0.0
2351 150058.000   44.399817334    8.937675030   107.1724   6  13   0.2580   0.2246   0.7961   0.0407   0.1359   0.1404   0.00    0.0
2351 150059.000   44.399817315    8.937675030   107.1707   6  13   0.2576   0.2242   0.7949   0.0406   0.1357   0.1401   0.00    0.0
2351 150060.000   44.399817298    8.937675032   107.1682   6  13   0.2571   0.2238   0.7937   0.0406   0.1355   0.1398   0.00    0.0
2351 150061.000   44.399817281    8.937675036   107.1659   6  13   0.2567   0.2234   0.7926   0.0405   0.1353   0.1395   0.00    0.0
2351 150062.000   44.399817266    8.937675049   107.1642   6  13   0.2562   0.2231   0.7914   0.0404   0.1351   0.1392   0.00    0.0
2351 150063.000   44.399817257    8.937675061   107.1619   6  13   0.2558   0.2227   0.7903   0.0403   0.1350   0.1389   0.00    0.0
2351 150064.000   44.399817251    8.937675075   107.1591   6  13   0.2553   0.2223   0.7891   0.0403   0.1348   0.1386   0.00    0.0
2351 150065.000   44.399817245    8.937675092   107.1565   6  13   0.2549   0.2219   0.7880   0.0402   0.1346   0.1383   0.00    0.0
2351 150066.000   44.399817241    8.937675107   107.1541   6  13   0.2544   0.2215   0.7869   0.0401   0.1344   0.1380   0.00    0.0
2351 150067.000   44.399817229    8.937675117   107.1506   6  13   0.2540   0.2212   0.7857   0.0400   0.1342   0.1377   0.00    0.0
2351 150068.000   44.399817222    8.937675131   107.1497   6  13   0.2536   0.2208   0.7846   0.0400   0.1340   0.1374   0.00    0.0
2351 150069.000   44.399817217    8.937675145   107.1496   6  13   0.2531   0.2204   0.7835   0.0399   0.1338   0.1371   0.00    0.0
2351 150070.000   44.399817211    8.937675154   107.1473   6  13   0.2527   0.2201   0.7824   0.0398   0.1336   0.1368   0.00    0.0
2351 150071.000   44.399817209    8.937675163   107.1446   6  13   0.2523   0.2197   0.7813   0.0397   0.1334   0.1365   0.00    0.0
2351 150072.000   44.399817202    8.937675170   107.1422   6  13   0.2518   0.2193   0.7802   0.0397   0.1333   0.1362   0.00    0.0
2351 150073.000   44.399817198    8.937675183   107.1393   6  13   0.2514   0.2190   0.7791   0.0396   0.1331   0.1359   0.00    0.0
2351 150074.000   44.399817197    8.937675198   107.1384   6  13   0.2510   0.2186   0.7780   0.0395   0.1329   0.1356   0.00    0.0
2351 150075.000   44.399817201    8.937675216   107.1375   6  13   0.2506   0.2182   0.7770   0.0395   0.1327   0.1353   0.00    0.0
2351 150076.000   44.399817208    8.937675231   107.1362   6  13   0.2501   0.2179   0.7759   0.0394   0.1325   0.1350   0.00    0.0
2351 150077.000   44.399817212    8.937675244   107.1337   6  13   0.2497   0.2175   0.7748   0.0393   0.1323   0.1347   0.00    0.0
2351 150078.000   44.399817216    8.937675259   107.1289   6  13   0.2493   0.2172   0.7737   0.0392   0.1322   0.1344   0.00    0.0
2351 150079.000   44.399817221    8.937675276   107.1254   6  13   0.2489   0.2168   0.7727   0.0392   0.1320   0.1341   0.00    0.0
2351 150080.000   44.399817222    8.937675288   107.1221   6  13   0.2485   0.2165   0.7716   0.0391   0.1318   0.1338   0.00    0.0
2351 150081.000   44.399817226    8.937675297   107.1189   6  13   0.2481   0.2161   0.7706   0.0390   0.1316   0.1335   0.00    0.0
2351 150082.000   44.399817225    8.937675309   107.1144   6  13   0.2477   0.2158   0.7695   0.0390   0.1315   0.1333   0.00    0.0
2351 150083.000   44.399817218    8.937675320   107.1092   6  13   0.2473   0.2154   0.7685   0.0389   0.1313   0.1330   0.00    0.0
2351 150084.000   44.399817218    8.937675331   107.1045   6  13   0.2468   0.2151   0.7675   0.0388   0.1311   0.1327   0.00    0.0
2351 150085.000   44.399817220    8.937675334   107.1011   6  13   0.2464   0.2147   0.7664   0.0387   0.1309   0.1324   0.00    0.0
2351 150086.000   44.399817224    8.937675342   107.0982   6  13   0.2460   0.2144   0.7654   0.0387   0.1308   0.1321   0.00    0.0
2351 150087.000   44.399817228    8.937675354   107.0960   6  13   0.2456   0.2140   0.7644   0.0386   0.1306   0.1319   0.00    0.0
2351 150088.000   44.399817236    8.937675363   107.0949   6  13   0.2452   0.2137   0.7634   0.0385   0.1304   0.1316   0.00    0.0
2351 150089.000   44.399817240    8.937675375   107.0941   6  13   0.2449   0.2134   0.7624   0.0385   0.1303   0.1313   0.00    0.0
2351 150090.000   44.399817243    8.937675388   107.0924   6  13   0.2445   0.2130   0.7614   0.0384   0.1301   0.1310   0.00    0.0
2351 150091.000   44.399817238    8.937675401   107.0914   6  13   0.2441   0.2127   0.7604   0.0383   0.1299   0.1307   0.00    0.0
2351 150092.000   44.399817231    8.937675413   107.0893   6  13   0.2437   0.2124   0.7594   0.0383   0.1298   0.1305   0.00    0.0
2351 150093.000   44.399817225    8.937675423   107.0863   6  13   0.2433   0.2120   0.7584   0.0382   0.1296   0.1302   0.00    0.0
2351 150094.000   44.399817219    8.937675430   107.0826   6  13   0.2429   0.2117   0.7574   0.0381   0.1294   0.1299   0.00    0.0
2351 150095.000   44.399817205    8.937675443   107.0795   6  13   0.2425   0.2114   0.7564   0.0381   0.1293   0.1297   0.00    0.0
2351 150096.000   44.399817187    8.937675456   107.0769   6  13   0.2421   0.2111   0.7554   0.0380   0.1291   0.1294   0.00    0.0
2351 150097.000   44.399817171    8.937675475   107.0748   6  13   0.2418   0.2107   0.7544   0.0379   0.1289   0.1291   0.00    0.0
2351 150098.000   44.399817155    8.937675495   107.0735   6  13   0.2414   0.2104   0.7535   0.0379   0.1288   0.1289   0.00    0.0
2351 150099.000   44.399817141    8.937675516   107.0742   6  13   0.2410   0.2101   0.7525   0.0378   0.1286   0.1286   0.00    0.0
2351 150100.000   44.399817120    8.937675544   107.0739   6  13   0.2406   0.2098   0.7515   0.0377   0.1285   0.1283   0.00    0.0
2351 150101.000   44.399817099    8.937675571   107.0719   6  13   0.2403   0.2094   0.7506   0.0377   0.1283   0.1281   0.00    0.0
2351 150102.000   44.399817076    8.937675598   107.0695   6  13   0.2399   0.2091   0.7496   0.0376   0.1281   0.1278   0.00    0.0
2351 150103.000   44.399817053    8.937675630   107.0674   6  13   0.2395   0.2088   0.7487   0.0375   0.1280   0.1275   0.00    0.0
2351 150104.000   44.399817029    8.937675663   107.0657   6  13   0.2391   0.2085   0.7477   0.0375   0.1278   0.1273   0.00    0.0
2351 150105.000   44.399817005    8.937675694   107.0636   6  13   0.2388   0.2082   0.7468   0.0374   0.1277   0.1270   0.00    0.0
2351 150106.000   44.399816978    8.937675722   107.0599   6  13   0.2384   0.2079   0.7459   0.0373   0.1275   0.1268   0.00    0.0
2351 150107.000   44.399816955    8.937675746   107.0565   6  13   0.2381   0.2076   0.7449   0.0373   0.1274   0.1265   0.00    0.0
2351 150108.000   44.399816935    8.937675771   107.0523   6  13   0.2377   0.2073   0.7440   0.0372   0.1272   0.1262   0.00    0.0
2351 150109.000   44.399816910    8.937675799   107.0484   6  13   0.2373   0.2069   0.7431   0.0371   0.1270   0.1260   0.00    0.0
2351 150110.000   44.399816885    8.937675824   107.0440   6  13   0.2370   0.2066   0.7422   0.0371   0.1269   0.1257   0.00    0.0
2351 150111.000   44.399816865    8.937675845   107.0392   6  13   0.2366   0.2063   0.7412   0.0370   0.1267   0.1255   0.00    0.0
2351 150112.000   44.399816842    8.937675864   107.0347   6  13   0.2363   0.2060   0.7403   0.0370   0.1266   0.1252   0.00    0.0
2351 150113.000   44.399816817    8.937675888   107.0313   6  13   0.2359   0.2057   0.7394   0.0369   0.1264   0.1250   0.00    0.0
2351 150114.000   44.399816788    8.937675910   107.0265   6  13   0.2356   0.2054   0.7385   0.0368   0.1263   0.1247   0.00    0.0
2351 150115.000   44.399816761    8.937675934   107.0217   6  13   0.2352   0.2051   0.7376   0.0368   0.1261   0.1245   0.00    0.0
2351 150116.000   44.399816733    8.937675955   107.0167   6  13   0.2349   0.2048   0.7367   0.0367   0.1260   0.1242   0.00    0.0
2351 150117.000   44.399816706    8.937675972   107.0129   6  13   0.2345   0.2045   0.7358   0.0366   0.1258   0.1240   0.00    0.0
2351 150118.000   44.399816678    8.937675988   107.0081   6  13   0.2342   0.2042   0.7349   0.0366   0.1257   0.1237   0.00    0.0
2351 150119.000   44.399816656    8.937676005   107.0046   6  13   0.2338   0.2039   0.7341   0.0365   0.1255   0.1235   0.00    0.0
2351 150120.000   44.399816633    8.937676023   107.0016   6  13   0.2335   0.2036   0.7332   0.0365   0.1254   0.1232   0.00    0.0
2351 150121.000   44.399816608    8.937676044   106.9994   6  13   0.2331   0.2034   0.7323   0.0364   0.1252   0.1230   0.00    0.0
2351 150122.000   44.399816581    8.937676067   106.9971   6  13   0.2328   0.2031   0.7314   0.0363   0.1251   0.1228   0.00    0.0
2351 150123.000   44.399816553    8.937676086   106.9951   6  13   0.2325   0.2028   0.7306   0.0363   0.1250   0.1225   0.00    0.0
2351 150124.000   44.399816526    8.937676109   106.9943   6  13   0.2321   0.2025   0.7297   0.0362   0.1248   0.1223   0.00    0.0
2351 150125.000   44.399816491    8.937676127   106.9925   6  13   0.2318   0.2022   0.7288   0.0361   0.1247   0.1220   0.00    0.0
2351 150126.000   44.399816451    8.937676140   106.9900   6  13   0.2314   0.2019   0.7280   0.0361   0.1245   0.1218   0.00    0.0
2351 150127.000   44.399816409    8.937676157   106.9862   6  13   0.2311   0.2016   0.7271   0.0360   0.1244   0.1216   0.00    0.0
2351 150128.000   44.399816376    8.937676170   106.9823   6  13   0.2308   0.2013   0.7263   0.0360   0.1242   0.1213   0.00    0.0
2351 150129.000   44.399816343    8.937676182   106.9797   6  13   0.2305   0.2011   0.7254   0.0359   0.1241   0.1211   0.00    0.0
2351 150130.000   44.399816314    8.937676192   106.9770   6  13   0.2301   0.2008   0.7246   0.0358   0.1240   0.1208   0.00    0.0
2351 150131.000   44.399816293    8.937676199   106.9752   6  13   0.2298   0.2005   0.7237   0.0358   0.1238   0.1206   0.00    0.0
2351 150132.000   44.399816278    8.937676205   106.9724   6  13   0.2295   0.2002   0.7229   0.0357   0.1237   0.1204   0.00    0.0
2351 150133.000   44.399816263    8.937676207   106.9697   6  13   0.2291   0.1999   0.7220   0.0357   0.1235   0.1201   0.00    0.0
2351 150134.000   44.399816246    8.937676208   106.9673   6  13   0.2288   0.1997   0.7212   0.0356   0.1234   0.1199   0.00    0.0
2351 150135.000   44.399816229    8.937676215   106.9649   6  13   0.2285   0.1994   0.7204   0.0356   0.1233   0.1197   0.00    0.0
2351 150136.000   44.399816215    8.937676221   106.9630   6  13   0.2282   0.1991   0.7196   0.0355   0.1231   0.1194   0.00    0.0
2351 150137.000   44.399816204    8.937676225   106.9620   6  13   0.2279   0.1989   0.7187   0.0354   0.1230   0.1192   0.00    0.0
2351 150138.000   44.399816194    8.937676233   106.9598   6  13   0.2275   0.1986   0.7179   0.0354   0.1229   0.1190   0.00    0.0
2351 150139.000   44.399816182    8.937676244   106.9572   6  13   0.2272   0.1983   0.7171   0.0353   0.1227   0.1188   0.00    0.0
2351 150140.000   44.399816170    8.937676254   106.9541   6  13   0.2269   0.1980   0.7163   0.0353   0.1226   0.1185   0.00    0.0
2351 150141.000   44.399816160    8.937676266   106.9520   6  13   0.2266   0.1978   0.7155   0.0352   0.1225   0.1183   0.00    0.0
2351 150142.000   44.399816148    8.937676285   106.9485   6  13   0.2263   0.1975   0.7147   0.0351   0.1223   0.1181   0.00    0.0
2351 150143.000   44.399816134    8.937676312   106.9444   6  13   0.2260   0.1972   0.7139   0.0351   0.1222   0.1178   0.00    0.0
2351 150144.000   44.399816114    8.937676342   106.9386   6  13   0.2257   0.1970   0.7131   0.0350   0.1221   0.1176   0.00    0.0
2351 150145.000   44.399816097    8.937676374   106.9319   6  13   0.2254   0.1967   0.7123   0.0350   0.1219   0.1174   0.00    0.0
2351 150146.000   44.399816075    8.937676414   106.9251   6  13   0.2250   0.1964   0.7115   0.0349   0.1218   0.1172   0.00    0.0
2351 150147.000   44.399816056    8.937676451   106.9198   6  13   0.2247   0.1962   0.7107   0.0349   0.1217   0.1169   0.00    0.0
2351 150148.000   44.399816035    8.937676488   106.9157   6  13   0.2244   0.1959   0.7099   0.0348   0.1215   0.1167   0.00    0.0
2351 150149.000   44.399816011    8.937676531   106.9113   6  13   0.2241   0.1957   0.7091   0.0347   0.1214   0.1165   0.00    0.0
2351 150150.000   44.399815990    8.937676569   106.9062   6  13   0.2238   0.1954   0.7083   0.0347   0.1213   0.1163   0.00    0.0
2351 150151.000   44.399815973    8.937676605   106.9019   6  13   0.2235   0.1951   0.7076   0.0346   0.1212   0.1161   0.00    0.0
2351 150152.000   44.399815962    8.937676642   106.8972   6  13   0.2232   0.1949   0.7068   0.0346   0.1210   0.1158   0.00    0.0
2351 150153.000   44.399815955    8.937676674   106.8941   6  13   0.2229   0.1946   0.7060   0.0345   0.1209   0.1156   0.00    0.0
2351 150154.000   44.399815952    8.937676702   106.8910   6  13   0.2226   0.1944   0.7052   0.0345   0.1208   0.1154   0.00    0.0
2351 150155.000   44.399815947    8.937676722   106.8887   6  13   0.2223   0.1941   0.7045   0.0344   0.1206   0.1152   0.00    0.0
2351 150156.000   44.399815943    8.937676745   106.8856   6  13   0.2220   0.1939   0.7037   0.0344   0.1205   0.1150   0.00    0.0
2351 150157.000   44.399815938    8.937676768   106.8823   6  13   0.2217   0.1936   0.7030   0.0343   0.1204   0.1148   0.00    0.0
2351 150158.000   44.399815933    8.937676786   106.8796   6  13   0.2214   0.1934   0.7022   0.0342   0.1203   0.1145   0.00    0.0
2351 150159.000   44.399815928    8.937676803   106.8768   6  13   0.2212   0.1931   0.7014   0.0342   0.1201   0.1143   0.00    0.0
2351 150160.000   44.399815919    8.937676818   106.8728   6  13   0.2209   0.1929   0.7007   0.0341   0.1200   0.1141   0.00    0.0
2351 150161.000   44.399815906    8.937676835   106.8692   6  13   0.2206   0.1926   0.6999   0.0341   0.1199   0.1139   0.00    0.0
2351 150162.000   44.399815894    8.937676851   106.8650   6  13   0.2203   0.1924   0.6992   0.0340   0.1198   0.1137   0.00    0.0
2351 150163.000   44.399815883    8.937676864   106.8609   6  13   0.2200   0.1921   0.6985   0.0340   0.1196   0.1135   0.00    0.0
2351 150164.000   44.399815869    8.937676878   106.8564   6  13   0.2197   0.1919   0.6977   0.0339   0.1195   0.1133   0.00    0.0
2351 150165.000   44.399815857    8.937676888   106.8521   6  13   0.2194   0.1916   0.6970   0.0339   0.1194   0.1130   0.00    0.0
2351 150166.000   44.399815840    8.937676897   106.8484   6  13   0.2191   0.1914   0.6962   0.0338   0.1193   0.1128   0.00    0.0
2351 150167.000   44.399815827    8.937676910   106.8442   6  13   0.2189   0.1911   0.6955   0.0338   0.1192   0.1126   0.00    0.0
2351 150168.000   44.399815814    8.937676925   106.8406   6  13   0.2186   0.1909   0.6948   0.0337   0.1190   0.1124   0.00    0.0
2351 150169.000   44.399815808    8.937676935   106.8363   6  13   0.2183   0.1907   0.6940   0.0337   0.1189   0.1122   0.00    0.0
2351 150170.000   44.399815794    8.937676943   106.8317   6  13   0.2180   0.1904   0.6933   0.0336   0.1188   0.1120   0.00    0.0
2351 150171.000   44.399815778    8.937676950   106.8267   6  13   0.2177   0.1902   0.6926   0.0336   0.1187   0.1118   0.00    0.0
2351 150172.000   44.399815762    8.937676953   106.8218   6  13   0.2175   0.1899   0.6919   0.0335   0.1186   0.1116   0.00    0.0
2351 150173.000   44.399815743    8.937676952   106.8177   6  13   0.2172   0.1897   0.6912   0.0334   0.1184   0.1114   0.00    0.0
2351 150174.000   44.399815724    8.937676950   106.8124   6  13   0.2169   0.1895   0.6905   0.0334   0.1183   0.1112   0.00    0.0
2351 150175.000   44.399815706    8.937676959   106.8066   6  13   0.2166   0.1892   0.6897   0.0333   0.1182   0.1110   0.00    0.0
2351 150176.000   44.399815689    8.937676966   106.7998   6  13   0.2163   0.1890   0.6890   0.0333   0.1181   0.1108   0.00    0.0
2351 150177.000   44.399815671    8.937676973   106.7924   6  13   0.2161   0.1888   0.6883   0.0332   0.1180   0.1106   0.00    0.0
2351 150178.000   44.399815655    8.937676978   106.7841   6  13   0.2158   0.1885   0.6876   0.0332   0.1179   0.1104   0.00    0.0
2351 150179.000   44.399815639    8.937676978   106.7760   6  13   0.2155   0.1883   0.6869   0.0331   0.1177   0.1102   0.00    0.0
2351 150180.000   44.399815628    8.937676979   106.7676   6  13   0.2153   0.1881   0.6862   0.0331   0.1176   0.1100   0.00    0.0
2351 150181.000   44.399815619    8.937676982   106.7581   6  13   0.2150   0.1878   0.6855   0.0330   0.1175   0.1098   0.00    0.0
2351 150182.000   44.399815606    8.937676985   106.7480   6  13   0.2147   0.1876   0.6848   0.0330   0.1174   0.1096   0.00    0.0
2351 150183.000   44.399815594    8.937676984   106.7384   6  13   0.2145   0.1874   0.6841   0.0329   0.1173   0.1094   0.00    0.0
2351 150184.000   44.399815581    8.937676984   106.7286   6  13   0.2142   0.1872   0.6834   0.0329   0.1172   0.1092   0.00    0.0
2351 150185.000   44.399815570    8.937676984   106.7185   6  13   0.2139   0.1869   0.6828   0.0328   0.1171   0.1090   0.00    0.0
2351 150186.000   44.399815562    8.937676987   106.7073   6  13   0.2137   0.1867   0.6821   0.0328   0.1169   0.1088   0.00    0.0
2351 150187.000   44.399815552    8.937676990   106.6945   6  13   0.2134   0.1865   0.6814   0.0327   0.1168   0.1086   0.00    0.0
2351 150188.000   44.399815539    8.937676996   106.6808   6  13   0.2131   0.1863   0.6807   0.0327   0.1167   0.1084   0.00    0.0
2351 150189.000   44.399815529    8.937676995   106.6687   6  13   0.2129   0.1860   0.6800   0.0326   0.1166   0.1082   0.00    0.0
2351 150190.000   44.399815514    8.937676996   106.6562   6  13   0.2126   0.1858   0.6794   0.0326   0.1165   0.1080   0.00    0.0
2351 150191.000   44.399815504    8.937677000   106.6452   6  13   0.2124   0.1856   0.6787   0.0325   0.1164   0.1078   0.00    0.0
2351 150192.000   44.399815492    8.937677002   106.6340   6  13   0.2121   0.1854   0.6780   0.0325   0.1163   0.1076   0.00    0.0
2351 150193.000   44.399815476    8.937677009   106.6225   6  13   0.2118   0.1851   0.6773   0.0324   0.1162   0.1074   0.00    0.0
2351 150194.000   44.399815458    8.937677015   106.6129   6  13   0.2116   0.1849   0.6767   0.0324   0.1161   0.1072   0.00    0.0
2351 150195.000   44.399815438    8.937677015   106.6034   6  13   0.2113   0.1847   0.6760   0.0323   0.1159   0.1070   0.00    0.0
2351 150196.000   44.399815416    8.937677020   106.5946   6  13   0.2111   0.1845   0.6754   0.0323   0.1158   0.1068   0.00    0.0
2351 150197.000   44.399815394    8.937677029   106.5873   6  13   0.2108   0.1843   0.6747   0.0322   0.1157   0.1066   0.00    0.0
2351 150198.000   44.399815372    8.937677032   106.5810   6  13   0.2106   0.1841   0.6740   0.0322   0.1156   0.1064   0.00    0.0
2351 150199.000   44.399815351    8.937677037   106.5741   6  13   0.2103   0.1838   0.6734   0.0321   0.1155   0.1062   0.00    0.0
2351 150200.000   44.399815333    8.937677042   106.5677   6  13   0.2101   0.1836   0.6727   0.0321   0.1154   0.1060   0.00    0.0
2351 150201.000   44.399815320    8.937677047   106.5615   6  13   0.2098   0.1834   0.6721   0.0320   0.1153   0.1059   0.00    0.0
2351 150202.000   44.399815310    8.937677050   106.5563   6  13   0.2096   0.1832   0.6714   0.0320   0.1152   0.1057   0.00    0.0
2351 150203.000   44.399815304    8.937677050   106.5510   6  13   0.2093   0.1830   0.6708   0.0319   0.1151   0.1055   0.00    0.0
2351 150204.000   44.399815294    8.937677054   106.5448   6  13   0.2091   0.1828   0.6701   0.0319   0.1150   0.1053   0.00    0.0
2351 150205.000   44.399815285    8.937677058   106.5373   6  13   0.2088   0.1826   0.6695   0.0318   0.1149   0.1051   0.00    0.0
